City,LAT,LON,Weather,Desription,Temp,Temp Feels,Temp Min,Temp Max,Pressure,Humidity,Visibility,Clouds,Wind Speed
Klyuchi,52.2667,79.1667,Clouds,broken clouds,291.89,291.2,291.89,291.89,1010,53,10000,83,3.1
Tigil',57.8,158.6667,Clouds,overcast clouds,278.73,277.22,278.73,278.73,1016,90,10000,100,1.97
Bowmore,34.9421,-79.3031,Clear,clear sky,295.53,295.49,295.15,296.15,1017,64,10000,1,4.63
New Norfolk,-42.7826,147.0587,Clouds,broken clouds,290.6,290.39,287.59,293.15,1019,76,10000,66,0.45
Khatanga,71.9667,102.5,Clouds,overcast clouds,274.34,270.51,274.34,274.34,1007,98,10000,100,3.73
Cranbrook,49.4999,-115.7688,Clouds,scattered clouds,284.15,282.61,284.15,284.15,1022,50,10000,40,1.54
The Valley,18.217,-63.0578,Clouds,broken clouds,298.67,299.31,298.15,299.15,1015,78,10000,75,7.2
Jamestown,42.097,-79.2353,Clouds,overcast clouds,290.15,290.36,290.15,290.15,1011,94,10000,90,3.09
Ushuaia,-54.8,-68.3,Rain,light rain,275.15,268.68,275.15,275.15,997,80,10000,40,10.29
Prieska,-29.6641,22.7474,Clouds,broken clouds,287.26,286.55,287.26,287.26,1015,70,10000,74,2.76
Albany,42.6001,-73.9662,Clouds,overcast clouds,286.61,286.34,285.93,287.59,1006,89,10000,88,1.14
Vao,-22.6667,167.4833,Clouds,broken clouds,296.5,296.46,296.5,296.5,1016,60,10000,71,7.75
Samarai,-10.6167,150.6667,Clouds,overcast clouds,300.14,302.24,300.14,300.14,1009,73,10000,100,5.02
Horki,54.2861,30.9842,Clear,clear sky,277.1,274.39,277.04,277.15,1018,75,10000,0,3.0
Hermanus,-34.4187,19.2345,Rain,light rain,286.48,286.24,286.48,286.48,1020,91,10000,29,0.89
Thompson,55.7435,-97.8558,Clouds,few clouds,267.15,263.35,267.15,267.15,1015,58,10000,20,2.25
Punta Arenas,-53.15,-70.9167,Clouds,scattered clouds,276.03,271.51,275.93,276.15,1004,87,10000,40,5.66
Broome,42.2506,-75.833,Clear,clear sky,287.36,287.13,285.37,289.15,1009,88,10000,1,3.09
Mount Isa,-20.7333,139.5,Clouds,scattered clouds,303.15,301.39,303.15,303.15,1015,20,10000,40,5.14
Busselton,-33.65,115.3333,Rain,moderate rain,294.82,294.95,294.82,294.82,1009,73,8348,100,5.81
Praia,14.9215,-23.5087,Clouds,scattered clouds,294.15,294.34,294.15,294.15,1013,78,10000,40,5.14
Roald,62.5833,6.1333,Clear,clear sky,274.94,269.25,273.71,276.15,1015,75,10000,0,7.72
Bluff,-46.6,168.3333,Clouds,overcast clouds,285.93,285.72,285.93,285.93,1018,94,10000,96,5.81
Okhotsk,59.3833,143.3,Clouds,broken clouds,276.94,275.74,276.94,276.94,1020,72,10000,60,1.48
Río Gallegos,-51.6226,-69.2181,Clear,clear sky,277.15,272.5,277.15,277.15,1005,65,10000,0,6.69
Barrow,71.2906,-156.7887,Clouds,overcast clouds,266.15,259.75,266.15,266.15,1007,86,10000,90,4.63
Kisangani,0.5167,25.2,Clouds,overcast clouds,295.21,296.06,295.21,295.21,1011,99,10000,100,0.77
Mataura,-46.1927,168.8643,Rain,light rain,285.93,285.72,285.93,285.93,1018,94,10000,96,5.81
Juneau,58.3019,-134.4197,Rain,light rain,276.67,274.73,275.37,279.15,1011,75,10000,90,2.06
Berlevåg,70.8578,29.0864,Snow,light snow,271.15,265.97,271.15,271.15,1005,80,10000,75,4.63
Kloulklubed,7.0419,134.2556,Clouds,broken clouds,304.15,310.75,304.15,304.15,1011,70,10000,75,4.63
Kedrovyy,56.1667,91.8167,Drizzle,light intensity drizzle,278.15,274.05,278.15,278.15,1015,93,9000,90,6.0
Rikitea,-23.1203,-134.9692,Clouds,broken clouds,297.5,297.79,297.5,297.5,1013,69,10000,74,4.38
Waipawa,-41.4122,175.5153,Clouds,scattered clouds,287.56,286.81,287.04,288.15,1020,67,10000,40,8.23
Agua Buena,7.8167,-80.4,Clouds,overcast clouds,298.62,299.23,298.62,298.62,1013,77,10000,100,3.27
College,64.8569,-147.8028,Clouds,few clouds,283.05,282.18,280.93,285.15,1002,25,10000,20,2.06
Shenkursk,62.1091,42.896,Clouds,scattered clouds,274.93,272.52,274.93,274.93,1013,53,10000,37,2.22
Padang,-0.9492,100.3543,Clouds,overcast clouds,301.75,306.24,301.75,301.75,1012,77,10000,100,2.23
Enderby,52.5878,-1.2062,Clouds,scattered clouds,273.51,270.37,271.48,274.82,1009,89,10000,29,2.69
Xining,36.6167,101.7667,Clear,clear sky,292.59,291.24,292.59,292.59,776,25,10000,0,5.87
Yellowknife,62.456,-114.3525,Clouds,broken clouds,267.07,260.53,267.04,267.15,1020,63,10000,75,5.14
Gwadar,25.1216,62.3254,Clouds,few clouds,302.95,305.99,302.95,302.95,1009,62,10000,21,2.41
Nobres,-14.7203,-56.3275,Clouds,overcast clouds,293.37,293.38,293.37,293.37,1014,74,10000,96,1.7
Batemans Bay,-35.7167,150.1833,Clouds,few clouds,292.86,292.95,292.59,293.15,1021,79,10000,17,0.89
Hobart,-42.8794,147.3294,Clouds,scattered clouds,292.39,291.54,292.04,293.15,1019,45,10000,40,4.12
Saskylakh,71.9167,114.0833,Clouds,overcast clouds,273.4,269.07,273.4,273.4,1013,84,10000,93,4.15
Audru,58.4086,24.3739,Clouds,broken clouds,273.15,273.15,273.15,273.15,1015,91,10000,83,0.89
San Cristobal,7.7669,-72.225,Clouds,overcast clouds,292.41,292.92,292.41,292.41,1014,97,10000,100,0.98
Lata,40.1629,-8.3327,Clouds,overcast clouds,285.69,285.01,283.71,287.59,1011,77,10000,98,0.89
Trairi,-3.2778,-39.2689,Clouds,overcast clouds,297.57,298.37,297.57,297.57,1010,88,10000,100,2.28
Ilulissat,69.2167,-51.1,Clouds,few clouds,271.15,269.05,271.15,271.15,1031,93,10000,20,1.54
Likasi,-10.9814,26.7333,Clouds,scattered clouds,289.77,289.97,289.77,289.77,1015,95,10000,48,1.38
Pisco,-13.7,-76.2167,Clouds,few clouds,290.48,290.57,290.15,290.93,1015,88,5000,23,0.53
Isangel,-19.55,169.2667,Clouds,few clouds,299.15,299.15,299.15,299.15,1013,61,10000,20,5.14
Mulegé,26.8833,-111.9833,Clear,clear sky,290.66,289.43,290.66,290.66,1017,37,10000,0,2.49
Mount Gambier,-37.8333,140.7667,Clouds,broken clouds,294.15,293.98,294.15,294.15,1022,64,10000,75,3.09
Pierre,44.3683,-100.351,Clouds,scattered clouds,286.32,284.92,286.15,286.48,1015,47,10000,40,2.57
Atuona,-9.8,-139.0333,Clouds,scattered clouds,299.6,299.6,299.6,299.6,1013,73,10000,26,5.52
Gimbi,9.1667,35.8333,Clouds,overcast clouds,288.81,288.6,288.81,288.81,1014,83,10000,99,1.13
Geraldton,-28.7667,114.6,Clouds,overcast clouds,300.15,300.57,300.15,300.15,1015,50,10000,100,4.12
Ancud,-41.8697,-73.8203,Clouds,overcast clouds,286.38,286.37,284.26,288.15,1015,100,4800,90,4.63
Vaini,-21.2,-175.2,Drizzle,drizzle,299.15,299.15,299.15,299.15,1011,89,10000,75,3.09
Hong Kong,22.2855,114.1577,Clouds,scattered clouds,297.31,297.53,293.15,299.26,1014,67,10000,40,0.89
Constitución,-35.3333,-72.4167,Clear,clear sky,287.32,286.52,287.32,287.32,1015,66,10000,0,2.35
Tromsø,69.6496,18.957,Snow,light snow,273.45,270.41,273.15,273.71,1011,69,10000,40,2.57
Ribeira Grande,38.5167,-28.7,Clouds,scattered clouds,287.94,287.33,287.94,287.94,1022,71,10000,41,5.65
Port Alfred,-33.5906,26.891,Rain,light rain,292.55,292.79,292.55,292.55,1014,86,10000,100,7.72
Kapaa,22.0752,-159.319,Clouds,overcast clouds,294.37,294.71,293.71,296.15,1017,83,10000,90,5.66
Xinzhi,36.4989,111.7047,Clouds,few clouds,295.86,294.58,295.86,295.86,1006,15,10000,20,11.19
Alofi,-19.0595,-169.9187,Rain,light rain,301.15,306.72,301.15,301.15,1011,89,10000,82,2.06
Boa Vista,2.8197,-60.6733,Rain,light rain,301.15,304.36,301.15,301.15,1011,74,10000,75,2.06
Cape Town,-33.9258,18.4232,Clouds,few clouds,286.27,285.91,284.82,287.59,1019,87,10000,20,3.6
Bambous Virieux,-20.3428,57.7575,Rain,moderate rain,298.41,299.32,297.59,299.15,1018,89,10000,75,6.17
Puerto Ayora,-0.7393,-90.3518,Clouds,scattered clouds,296.93,297.71,296.93,296.93,1014,90,10000,35,2.22
Russell,32.3502,-85.1999,Clear,clear sky,292.03,292.27,290.37,295.15,1017,88,10000,1,2.33
Carnarvon,-24.8667,113.6333,Clear,clear sky,300.15,301.6,300.15,300.15,1015,65,10000,1,4.63
Bredasdorp,-34.5322,20.0403,Clouds,few clouds,285.15,284.68,285.15,285.15,1017,87,10000,17,2.06
São João da Barra,-21.6403,-41.0511,Clouds,overcast clouds,295.56,295.87,295.56,295.56,1017,77,10000,93,3.01
Hualmay,-11.0964,-77.6139,Clear,clear sky,292.0,292.24,292.0,292.0,1014,88,10000,10,3.85
Yangi Marg`ilon,40.4272,71.7189,Clear,clear sky,300.15,299.21,300.15,300.15,1013,19,10000,0,1.03
Pavino,59.1139,46.1414,Clouds,broken clouds,274.55,270.6,274.55,274.55,1014,70,10000,79,3.98
Sitka,57.0531,-135.33,Rain,moderate rain,282.15,280.41,282.15,282.15,1005,81,10000,90,3.09
Praia da Vitória,38.7333,-27.0667,Clouds,broken clouds,286.62,286.48,285.93,287.15,1021,94,10000,75,3.76
Leningradskiy,69.3833,178.4167,Clouds,overcast clouds,270.74,270.74,270.74,270.74,1019,74,10000,100,0.49
Tuatapere,-46.1333,167.6833,Clouds,overcast clouds,285.93,285.72,285.93,285.93,1018,94,10000,97,5.81
Sechura,-5.5569,-80.8222,Clouds,overcast clouds,294.02,294.12,294.02,294.02,1014,75,10000,94,5.6
Atar,20.5169,-13.0499,Clouds,scattered clouds,297.72,297.09,297.72,297.72,1009,33,10000,25,3.0
Tuktoyaktuk,69.4541,-133.0374,Clouds,scattered clouds,270.15,263.53,270.15,270.15,1014,80,10000,40,6.69
Plettenberg Bay,-34.0527,23.3716,Rain,light rain,288.08,287.9,288.08,288.08,1018,87,10000,100,3.95
San Ramon,37.7799,-121.978,Clear,clear sky,290.0,288.63,288.71,292.15,1021,34,10000,1,2.06
Esim,4.8699,-2.2405,Clouds,overcast clouds,299.82,302.4,299.82,299.82,1009,83,10000,100,2.58
Turaif,31.6725,38.6637,Clear,clear sky,292.15,291.12,292.15,292.15,1019,39,10000,0,4.12
Butaritari,3.0707,172.7902,Rain,light rain,301.4,304.76,301.4,301.4,1008,73,10000,94,4.47
Vestmanna,62.1564,-7.1664,Clouds,few clouds,276.15,272.48,276.15,276.15,1023,70,10000,20,4.12
Saint Paul Harbor,57.79,-152.4072,Clouds,overcast clouds,280.15,278.0,280.15,280.15,1005,87,10000,90,3.09
Iqaluit,63.7506,-68.5145,Snow,snow,271.04,268.92,270.93,271.15,1021,93,6437,90,1.54
Vestmannaeyjar,63.4427,-20.2734,Clouds,overcast clouds,279.1,276.18,279.1,279.1,1028,72,10000,100,4.0
Hilo,19.7297,-155.09,Rain,light rain,296.2,296.05,293.15,300.15,1016,57,10000,75,2.06
George Town,5.4112,100.3354,Clouds,few clouds,305.03,313.21,304.82,305.15,1011,70,9000,20,2.57
Tadine,-21.55,167.8833,Clouds,few clouds,297.32,297.2,297.32,297.32,1015,54,10000,20,6.72
Olinda,-8.0089,-34.8553,Clouds,scattered clouds,297.15,297.9,297.15,297.15,1012,88,10000,40,2.57
Te Anau,-45.4167,167.7167,Rain,light rain,284.54,284.11,284.54,284.54,1020,91,10000,100,2.53
Severo-Kuril'sk,50.6789,156.125,Clouds,overcast clouds,276.31,274.05,276.31,276.31,1014,83,10000,93,2.31
Qaanaaq,77.484,-69.3632,Clouds,overcast clouds,265.9,260.56,265.9,265.9,1038,84,10000,98,3.36
Paita,-5.0892,-81.1144,Clouds,overcast clouds,293.81,293.97,293.81,293.81,1014,78,10000,91,4.94
Beidao,34.5686,105.8933,Clear,clear sky,297.44,296.45,297.44,297.44,1012,20,10000,1,2.4
Departamento de Maldonado,-34.6667,-54.9167,Fog,fog,284.15,283.73,284.15,284.15,1022,93,10000,0,2.13
Ballina,-28.8667,153.5667,Clouds,scattered clouds,295.47,295.43,294.82,296.15,1021,64,10000,40,4.12
Bethel,41.3712,-73.414,Clouds,overcast clouds,288.0,287.97,287.04,288.71,1007,93,10000,100,2.33
San Quintín,30.4833,-115.95,Clear,clear sky,287.9,287.65,287.9,287.9,1019,85,10000,0,1.74
Port Lincoln,-34.7333,135.8667,Clear,clear sky,295.09,294.44,295.09,295.09,1021,42,10000,7,2.68
Province of Mantua,45.1667,10.7833,Clouds,overcast clouds,286.31,286.16,285.93,286.48,1008,95,10000,98,1.59
Merrill,45.1805,-89.6835,Clouds,scattered clouds,283.65,282.51,282.04,286.15,1012,67,10000,40,2.06
Duma,34.7653,108.135,Clouds,few clouds,301.15,300.08,301.15,301.15,1010,26,10000,20,7.0
Yunyang,33.4474,112.7142,Clear,clear sky,301.89,300.5,301.89,301.89,1006,23,10000,5,7.37
Lipari,38.4674,14.954,Clouds,few clouds,287.89,287.17,287.15,288.15,1011,67,10000,20,1.03
Lac du Bonnet,50.2536,-96.0612,Clouds,overcast clouds,273.71,270.61,273.71,273.71,1019,99,10000,100,2.68
Wahiawā,21.5028,-158.0236,Rain,light rain,294.62,295.12,293.15,297.04,1017,88,8047,90,3.09
Presidente Médici,-11.1753,-61.9014,Rain,heavy intensity rain,294.85,295.5,294.85,294.85,1013,93,10000,79,1.99
Syava,58.0146,46.3222,Clouds,broken clouds,276.65,273.24,276.65,276.65,1015,58,10000,81,3.88
Rundu,-17.9333,19.7667,Clouds,few clouds,288.92,288.72,288.92,288.92,1015,83,10000,18,2.34
Temple,31.0982,-97.3428,Rain,light rain,297.55,298.34,297.15,298.15,1008,88,10000,90,8.75
Iztapa,13.9333,-90.7075,Clouds,overcast clouds,299.15,299.15,299.15,299.15,1014,89,8000,90,4.12
Brae,60.3964,-1.353,Clouds,scattered clouds,276.15,271.91,276.15,276.15,1016,81,10000,40,5.14
Mīrābād,30.4362,61.8383,Clouds,broken clouds,306.3,303.97,306.3,306.3,1008,15,10000,60,0.51
Cayenne,4.9333,-52.3333,Clouds,overcast clouds,298.48,299.37,298.15,298.71,1011,88,10000,90,3.09
Sayyan,15.1718,44.3244,Clear,clear sky,289.1,288.32,289.1,289.1,1017,60,10000,8,0.81
Antofagasta,-23.65,-70.4,Clear,clear sky,288.15,287.85,288.15,288.15,1017,82,10000,0,1.54
Hamilton,39.1834,-84.5333,Clouds,overcast clouds,292.25,292.83,292.04,292.59,1013,100,10000,90,2.06
Longyearbyen,78.2186,15.6401,Clouds,broken clouds,266.15,257.62,266.15,266.15,1010,63,10000,75,8.23
Mayo,38.8876,-76.5119,Clear,clear sky,294.73,294.51,292.59,297.15,1010,60,10000,1,1.54
Norman Wells,65.282,-126.8329,Clouds,few clouds,271.15,264.34,271.15,271.15,1018,43,10000,20,7.72
Hida,47.0667,23.2833,Clear,clear sky,282.1,281.56,282.04,282.15,1012,93,10000,0,1.54
Condado,21.8767,-79.8403,Rain,light rain,298.49,298.99,297.15,299.15,1017,73,10000,2,3.09
Coquimbo,-29.9533,-71.3436,Clouds,overcast clouds,286.15,285.96,286.15,286.15,1017,94,10000,90,2.06
Maniitsoq,65.4167,-52.9,Clouds,overcast clouds,274.75,274.75,274.75,274.75,1030,81,10000,100,0.65
Charters Towers,-20.1,146.2667,Clear,clear sky,300.18,299.94,300.18,300.18,1014,38,10000,7,4.58
Lebu,-37.6167,-73.65,Clouds,broken clouds,285.27,284.89,285.27,285.27,1017,90,10000,77,1.4
Hithadhoo,-0.6,73.0833,Clouds,scattered clouds,302.19,305.96,302.19,302.19,1012,70,10000,48,4.14
Tarakan,3.3,117.6333,Clouds,scattered clouds,305.15,310.84,305.15,305.15,1011,62,10000,40,2.57
Gamba,-2.65,10.0,Clouds,overcast clouds,297.38,298.26,297.38,297.38,1010,92,10000,100,1.49
Cockburn Town,21.4612,-71.1419,Clouds,broken clouds,298.48,299.05,298.48,298.48,1017,76,10000,70,9.32
Balkhash,46.844,74.9804,Clear,clear sky,297.15,296.18,297.15,297.15,1013,22,10000,0,3.0
Nanortalik,60.1432,-45.2371,Clouds,broken clouds,274.7,272.61,274.7,274.7,1030,94,10000,52,1.91
Castro,-24.7911,-50.0119,Clouds,few clouds,284.06,283.69,284.06,284.06,1020,95,10000,24,2.99
Chui,-33.6971,-53.4616,Clear,clear sky,284.88,284.43,284.88,284.88,1023,89,10000,1,2.31
Madang,-5.2246,145.7966,Clouds,broken clouds,301.95,306.17,301.95,301.95,1007,74,10000,83,3.76
Martapura,-3.4167,114.85,Clouds,scattered clouds,306.15,309.16,306.15,306.15,1010,49,10000,40,2.06
Mar del Plata,-38.0023,-57.5575,Clear,clear sky,287.8,287.78,286.15,289.82,1019,94,10000,0,3.6
Kirgiz-Miyaki,53.6324,54.7979,Clouds,few clouds,280.39,277.53,280.39,280.39,1019,64,10000,15,4.47
Saint-Philippe,-21.3585,55.7679,Rain,light rain,298.5,299.13,298.15,299.15,1017,78,10000,0,9.26
Vostok,46.4856,135.8833,Clear,clear sky,284.63,282.38,284.63,284.63,1009,21,10000,5,3.69
Hobyo,5.3505,48.5268,Clouds,few clouds,303.01,306.31,303.01,303.01,1012,63,10000,16,3.59
Darhan,49.4867,105.9228,Clouds,overcast clouds,277.53,274.99,277.53,277.53,1006,88,675,100,2.89
Burgeo,47.6167,-57.6152,Clouds,overcast clouds,276.45,273.16,276.45,276.45,1009,86,10000,98,3.63
Katsuura,35.1333,140.3,Rain,moderate rain,290.74,290.85,289.82,291.15,1010,88,5000,75,6.17
Egvekinot,66.3167,-179.1667,Clouds,overcast clouds,267.29,267.29,267.29,267.29,1020,89,10000,91,1.1
Ponta do Sol,32.6667,-17.1,Clouds,broken clouds,284.97,284.3,282.04,287.59,1012,80,10000,68,0.45
Labuhan,-6.8844,112.2051,Clouds,scattered clouds,303.5,307.33,303.5,303.5,1010,63,10000,49,1.94
Bilecik Province,40.0,30.1667,Clear,clear sky,286.87,286.18,286.15,287.15,1016,72,10000,0,2.06
São Félix do Xingu,-6.6447,-51.995,Clouds,overcast clouds,294.01,294.74,294.01,294.01,1012,99,10000,92,0.57
Tres Arroyos,-38.3739,-60.2798,Clouds,scattered clouds,287.48,287.27,287.48,287.48,1019,88,10000,33,4.53
Muroto-misakicho,33.2833,134.15,Rain,moderate rain,289.15,289.26,289.15,289.15,1005,94,5000,75,4.68
Hasaki,35.7333,140.8333,Rain,moderate rain,289.78,290.11,289.15,290.37,1009,100,1500,75,2.06
Kruisfontein,-34.0033,24.7314,Clouds,overcast clouds,289.82,289.53,289.82,289.82,1016,76,10000,100,1.34
Thunder Bay,48.4001,-89.3168,Clouds,few clouds,275.56,275.56,275.15,276.48,1013,93,10000,20,0.44
Olafsvik,64.8945,-23.7142,Clouds,few clouds,277.96,277.96,277.96,277.96,1027,75,10000,18,0.47
Narsaq,60.9167,-46.05,Clouds,overcast clouds,275.15,271.98,275.15,275.15,1030,87,10000,90,3.09
Vanavara,60.34,102.2797,Clouds,overcast clouds,277.27,274.44,277.27,277.27,1017,48,10000,87,3.21
Paka,4.6374,103.4368,Rain,moderate rain,302.1,308.63,302.04,302.15,1012,84,10000,40,1.03
Lagoa,39.05,-27.9833,Clouds,broken clouds,287.59,286.79,287.59,287.59,1022,65,10000,68,4.26
Talara,-4.5772,-81.2719,Clouds,broken clouds,294.54,294.75,294.54,294.54,1013,77,10000,66,6.27
Malinovoye Ozero,51.6753,79.7825,Clouds,overcast clouds,294.07,293.5,294.07,294.07,1010,49,10000,98,3.53
Sovetskiy,61.3614,63.5842,Clouds,overcast clouds,278.14,274.85,278.14,278.14,1002,79,10000,100,4.27
Altagracia de Orituco,9.8601,-66.3814,Clouds,overcast clouds,294.8,295.48,294.8,294.8,1013,94,4739,100,1.69
Ayan,56.45,138.1667,Clouds,overcast clouds,273.13,268.81,273.13,273.13,1021,65,10000,95,4.04
Parry Sound,45.3501,-80.033,Clouds,overcast clouds,281.15,279.86,281.15,281.15,1011,87,10000,95,2.18
Vila Velha,-20.3297,-40.2925,Clouds,broken clouds,296.15,296.67,296.15,296.15,1016,83,10000,75,2.06
Sydney,-33.8679,151.2073,Clouds,few clouds,294.75,294.43,293.15,296.48,1022,56,10000,20,5.66
Qaqortoq,60.7167,-46.0333,Clouds,overcast clouds,275.15,271.98,275.15,275.15,1030,87,10000,90,3.09
Arraial do Cabo,-22.9661,-42.0278,Clouds,overcast clouds,294.77,295.05,294.77,294.77,1017,79,10000,98,2.66
Talnakh,69.4865,88.3972,Snow,light snow,273.98,270.83,273.98,273.98,1007,99,37,100,2.79
Lüderitz,-26.6481,15.1594,Clouds,few clouds,287.46,286.96,287.46,287.46,1015,77,10000,20,9.86
Abu Dhabi,24.4667,54.3667,Clear,clear sky,305.72,304.5,305.15,306.15,1009,29,10000,0,1.03
Teya,60.3778,92.6267,Clouds,overcast clouds,278.36,278.36,278.36,278.36,1014,93,10000,100,1.16
Sumenep,-7.0167,113.8667,Clouds,scattered clouds,302.83,306.15,302.83,302.83,1011,64,10000,33,4.08
Kurchum,48.5722,83.6542,Clouds,broken clouds,294.2,293.22,294.2,294.2,1014,33,10000,61,1.83
Conde,-7.2597,-34.9075,Clouds,broken clouds,297.15,298.06,297.15,297.15,1012,94,10000,75,1.03
Buala,-8.145,159.5921,Rain,light rain,300.93,304.29,300.93,300.93,1008,77,10000,99,1.68
Naze,28.3667,129.4833,Rain,moderate rain,292.15,292.56,292.15,292.15,1009,94,5000,75,6.17
Margate,51.3813,1.3862,Clouds,overcast clouds,279.82,277.57,279.82,279.82,990,75,10000,98,3.13
Saldanha,-33.0117,17.9442,Clouds,few clouds,282.15,282.15,282.15,282.15,1017,93,10000,20,0.51
Prince George,53.9166,-122.753,Rain,light rain,280.15,278.0,279.82,280.37,1018,93,10000,90,3.09
Montreal,45.5088,-73.5878,Clouds,overcast clouds,282.96,282.96,282.15,283.15,1010,87,10000,100,0.51
Mahébourg,-20.4081,57.7,Rain,moderate rain,299.15,299.15,299.15,299.15,1018,89,10000,75,6.17
Klaksvík,62.2266,-6.589,Clouds,few clouds,276.15,272.48,276.15,276.15,1023,70,10000,20,4.12
Saint-Pierre,-21.3393,55.4781,Clear,clear sky,298.65,299.29,298.15,299.15,1017,78,10000,0,9.26
Baruun-Urt,46.6806,113.2792,Clouds,few clouds,277.73,273.43,277.73,277.73,1006,19,10000,13,6.19
Anadyr,64.75,177.4833,Clear,clear sky,271.02,267.09,270.93,271.15,1021,80,10000,0,3.0
Torbay,47.6666,-52.7314,Clouds,broken clouds,275.61,271.51,274.82,276.48,1009,93,10000,75,4.63
Flinders,-34.5833,150.8552,Clouds,broken clouds,295.77,295.78,294.82,296.48,1017,65,10000,61,1.79
Kodinsk,58.6881,99.1844,Clouds,overcast clouds,278.54,275.77,278.54,278.54,1015,49,10000,100,3.53
Mana,5.6592,-53.7767,Rain,heavy intensity rain,297.54,298.44,297.54,297.54,1011,92,6834,100,3.73
Hoshangābād,22.75,77.7167,Clear,clear sky,311.69,308.73,311.69,311.69,1009,10,10000,7,2.15
Dingle,10.9995,122.6711,Clouds,broken clouds,305.81,308.76,305.81,305.81,1010,50,10000,53,3.65
Kununurra,-15.7667,128.7333,Clouds,broken clouds,306.15,310.03,306.15,306.15,1011,52,10000,75,4.12
Kutum,14.2,24.6667,Clouds,overcast clouds,298.18,297.13,298.18,298.18,1011,15,10000,100,2.83
Salalah,17.0151,54.0924,Clouds,broken clouds,302.15,307.68,302.15,302.15,1012,79,10000,75,2.57
Vanimo,-2.6741,141.3028,Clouds,broken clouds,303.14,307.23,303.14,303.14,1008,66,10000,74,3.6
Saint George,37.1041,-113.5841,Clear,clear sky,294.15,292.85,294.15,294.15,1020,21,10000,1,4.12
Kavaratti,10.5669,72.642,Clouds,few clouds,302.38,305.81,302.38,302.38,1013,67,10000,12,1.42
Linhai,28.85,121.1167,Clouds,broken clouds,296.79,297.79,296.48,297.04,1006,99,10000,75,2.68
Playas,-2.6333,-80.3833,Clouds,overcast clouds,297.13,297.8,297.13,297.13,1013,85,10000,100,3.31
East London,-33.0153,27.9116,Clouds,broken clouds,290.15,290.2,290.15,290.15,1013,88,10000,75,5.14
Tautira,-17.7333,-149.15,Clouds,scattered clouds,299.98,302.03,299.82,300.15,1013,74,10000,40,1.03
Port Elizabeth,-33.918,25.5701,Rain,light rain,289.15,288.95,289.15,289.15,1014,82,10000,0,10.29
Tucumã,-0.1833,-50.05,Clouds,overcast clouds,297.04,297.89,297.04,297.04,1010,92,10000,100,1.38
Pervomayskoye,43.919,46.7102,Clouds,scattered clouds,289.96,289.03,289.96,289.96,1020,51,10000,39,3.02
Xinqing,48.2333,129.5,Clouds,broken clouds,287.43,285.31,287.43,287.43,1004,15,10000,61,2.95
Puerto Madero,14.7208,-92.4215,Clouds,overcast clouds,299.15,299.15,299.15,299.15,1013,78,10000,90,1.08
Gaozhou,21.9392,110.8461,Clouds,broken clouds,300.55,301.93,300.55,300.55,1014,62,10000,82,1.62
Avarua,-21.2078,-159.775,Clouds,few clouds,301.15,304.95,301.15,301.15,1014,78,10000,20,3.09
Karratha,-20.7377,116.8463,Clear,clear sky,306.6,304.72,306.6,306.6,1013,22,10000,0,5.21
Rafai,4.95,23.9167,Clouds,overcast clouds,294.03,294.68,294.03,294.03,1011,96,10000,100,1.2
Ducheng,23.2373,111.5317,Clouds,broken clouds,300.84,301.34,300.84,300.84,1014,51,10000,72,1.52
Mayumba,-3.432,10.6554,Clouds,overcast clouds,298.18,299.04,298.18,298.18,1010,88,10000,100,2.02
Cauquenes,-35.9671,-72.3225,Clear,clear sky,286.16,285.14,286.16,286.16,1016,62,10000,2,0.52
Bataiporã,-22.2953,-53.2711,Clear,clear sky,285.66,284.35,285.66,285.66,1017,53,10000,6,1.56
Aykhal,66.0,111.5,Clear,clear sky,273.25,267.61,273.25,273.25,1021,87,10000,6,6.45
Porto-Novo,6.4965,2.6036,Clouds,few clouds,298.15,299.16,298.15,298.15,1008,94,6000,20,1.03
Along,28.1667,94.7667,Clouds,scattered clouds,308.66,307.55,308.66,308.66,1012,25,10000,29,1.06
Sakakah,29.9697,40.2064,Clear,clear sky,292.15,290.47,292.15,292.15,1021,14,10000,0,1.54
Al Bardīyah,31.7561,25.0865,Clouds,scattered clouds,296.85,295.9,296.85,296.85,1016,24,10000,37,3.59
Cabo San Lucas,22.8909,-109.9124,Clouds,few clouds,293.52,293.52,293.15,294.26,1015,73,10000,18,2.24
Nioro,13.35,-15.75,Clear,clear sky,296.51,295.92,296.51,296.51,1009,39,10000,5,1.62
Stann Creek Town,16.9692,-88.2321,Clouds,few clouds,300.37,303.49,300.37,300.37,1012,81,10000,16,4.02
Provideniya,64.3833,-173.3,Clear,clear sky,275.15,271.32,275.15,275.15,1018,60,10000,0,4.0
Christchurch,-43.5333,172.6333,Clouds,few clouds,289.39,288.32,287.04,291.15,1017,48,10000,15,3.6
Nālūt,30.3333,10.85,Clouds,overcast clouds,301.76,300.41,301.76,301.76,1012,23,10000,94,6.47
Kāvali,14.9167,79.9833,Clear,clear sky,307.93,310.56,307.93,307.93,1010,42,10000,9,4.68
Francisco Beltrão,-26.0811,-53.055,Clear,clear sky,282.71,281.69,282.71,282.71,1021,51,10000,1,2.18
Rio Grande,-32.035,-52.0986,Clear,clear sky,287.47,287.02,287.47,287.47,1023,79,10000,1,2.88
Helong,42.5397,128.9972,Clouds,broken clouds,287.77,286.1,287.77,287.77,1003,31,10000,80,5.44
Kungurtug,50.5994,97.5228,Clouds,broken clouds,281.4,277.94,281.4,281.4,1011,66,10000,72,6.68
Itaituba,-4.2761,-55.9836,Clouds,overcast clouds,295.58,296.46,295.58,295.58,1011,99,10000,97,0.57
Polson,47.6936,-114.1632,Clouds,broken clouds,283.47,282.02,281.48,284.26,1026,56,10000,82,1.71
Tyazhinskiy,56.116,88.524,Clouds,scattered clouds,282.59,281.54,282.59,282.59,1017,63,10000,47,2.19
Turukhansk,65.8167,87.9833,Clouds,overcast clouds,273.3,270.78,273.3,273.3,1011,98,3979,100,2.07
Adrar,20.5022,-10.0711,Clear,clear sky,299.25,299.25,299.25,299.25,1008,20,10000,4,5.02
Laas,46.6166,10.7002,Mist,mist,281.76,280.28,278.15,285.37,1006,100,3000,90,2.57
Meaford,44.6001,-80.583,Clouds,overcast clouds,279.15,277.4,278.71,279.82,986,96,9509,100,2.31
Kaitangata,-46.2817,169.8464,Rain,light rain,288.15,287.46,288.15,288.15,1015,67,10000,89,4.92
Fort-Shevchenko,44.5086,50.263,Clouds,overcast clouds,288.41,287.45,288.41,288.41,1020,56,10000,100,5.18
Acapulco de Juárez,16.8634,-99.8901,Clouds,overcast clouds,298.99,299.72,298.99,298.99,1013,80,10000,91,1.83
Lorengau,-2.0226,147.2712,Rain,heavy intensity rain,302.68,306.44,302.68,302.68,1008,67,10000,99,2.96
North Myrtle Beach,33.816,-78.68,Clear,clear sky,292.89,293.37,292.15,293.15,1018,94,10000,1,5.14
Moose Factory,51.2585,-80.6094,Clear,clear sky,272.15,268.37,272.15,272.15,1016,74,10000,1,3.09
Qasigiannguit,68.8193,-51.1922,Clouds,few clouds,271.15,269.05,271.15,271.15,1031,93,10000,20,1.54
Colares,38.7992,-9.4469,Clouds,overcast clouds,285.83,285.06,284.82,286.48,1012,73,10000,100,6.27
Diré,12.2833,-10.9667,Clouds,broken clouds,303.1,301.86,303.1,303.1,1008,30,10000,83,1.39
Hargeisa,9.56,44.065,Rain,light rain,296.31,296.33,296.31,296.31,1014,63,10000,73,3.59
Quatre Cocos,-20.2078,57.7625,Rain,moderate rain,298.32,299.22,297.59,299.15,1018,89,10000,75,6.17
Kuril'sk,45.2333,147.8833,Clouds,overcast clouds,279.02,279.02,279.02,279.02,1013,85,10000,99,1.08
Kumul,42.8,93.45,Clouds,scattered clouds,299.22,299.22,299.22,299.22,1011,11,10000,44,4.22
Chicama,-7.8447,-79.1469,Clouds,broken clouds,292.66,292.94,292.66,292.66,1014,87,10000,68,2.12
Beruwala,6.4788,79.9828,Clouds,broken clouds,302.79,306.89,302.79,302.79,1012,68,10000,78,2.81
Tūkrah,32.5341,20.5791,Clouds,overcast clouds,300.39,299.34,300.39,300.39,1012,18,10000,96,9.08
Presidente Epitácio,-21.7633,-52.1156,Clouds,scattered clouds,287.85,286.79,287.85,287.85,1016,54,10000,32,2.47
Kota Belud,6.351,116.4305,Clouds,few clouds,305.01,313.15,304.82,305.15,1011,70,10000,20,2.06
Vardø,70.3705,31.1107,Snow,light snow,270.15,264.08,270.15,270.15,1005,74,10000,40,5.66
Kargasok,59.0556,80.8572,Clouds,overcast clouds,282.46,279.77,282.46,282.46,1008,81,10000,100,5.29
Shenzhen,22.5455,114.0683,Clouds,scattered clouds,297.32,297.44,293.15,300.37,1015,63,10000,40,0.89
Zmeinogorsk,51.1567,82.195,Clouds,overcast clouds,294.11,293.31,294.11,294.11,1011,40,10000,99,4.08
Dolores,-36.3132,-57.6792,Rain,light rain,285.89,285.57,285.89,285.89,1021,90,10000,0,3.15
Jalu,29.0331,21.5482,Clear,clear sky,296.9,295.64,296.9,296.9,1015,12,10000,10,4.79
Hailey,43.5196,-114.3153,Clear,clear sky,284.15,282.61,284.15,284.15,1026,50,10000,1,4.63
Nuristan,35.3,70.8333,Clear,clear sky,280.94,279.94,280.94,280.94,1021,41,10000,3,1.82
Tiksi,71.6872,128.8694,Clouds,few clouds,272.86,269.31,272.86,272.86,1020,84,10000,16,2.99
São Filipe,14.8961,-24.4956,Clouds,broken clouds,295.53,295.86,295.53,295.53,1012,78,10000,60,3.78
Proti,40.95,24.0,Clear,clear sky,286.29,285.93,284.15,288.15,1012,87,10000,0,1.54
Katherine,-14.4667,132.2667,Clear,clear sky,305.15,306.39,305.15,305.15,1012,45,10000,0,4.63
Berbera,10.4396,45.0143,Clouds,overcast clouds,303.1,306.5,303.1,303.1,1011,63,10000,95,2.74
Ostrov,57.3439,28.3537,Clouds,broken clouds,275.15,272.05,275.15,275.15,1016,87,10000,75,3.0
Yuci,37.6803,112.7319,Clear,clear sky,292.15,290.47,292.15,292.15,1007,14,10000,0,8.0
Bairiki Village,1.3292,172.9752,Clouds,scattered clouds,303.15,309.19,303.15,303.15,1008,74,10000,40,4.12
Kenai,60.5544,-151.2583,Clouds,overcast clouds,285.15,283.32,285.15,285.15,1005,35,10000,90,2.06
Sim,54.993,57.6982,Clouds,broken clouds,277.27,274.1,277.27,277.27,1017,81,10000,74,3.72
Nemuro,43.3236,145.575,Clouds,broken clouds,289.15,288.06,289.15,289.15,1012,48,10000,75,5.66
Khasan,42.4308,130.6434,Clouds,broken clouds,283.96,282.45,283.96,283.96,1009,52,10000,81,3.93
San Vicente de Cañete,-13.0751,-76.3835,Clouds,scattered clouds,291.99,292.25,291.99,291.99,1015,89,10000,44,0.92
Seoul,37.5683,126.9778,Clear,clear sky,290.2,288.9,288.15,291.15,1005,36,10000,0,4.12
Mujiayingzi,42.1167,118.7833,Clouds,overcast clouds,280.84,277.29,280.84,280.84,1003,44,10000,90,6.49
Minzhu,43.7286,127.3447,Clouds,overcast clouds,290.49,288.85,290.49,290.49,1001,22,10000,100,5.18
Muravlenko,63.7898,74.523,Clouds,overcast clouds,276.14,271.56,276.14,276.14,1004,89,8570,100,5.86
Jūnāgadh,21.5167,70.4667,Clouds,overcast clouds,306.86,305.6,306.86,306.86,1012,27,10000,85,1.66
Sur,22.5667,59.5289,Clouds,overcast clouds,306.72,305.71,306.72,306.72,1010,29,10000,96,2.95
Shenjiamen,29.9576,122.298,Clouds,broken clouds,292.69,292.37,292.69,292.69,1011,64,10000,66,1.57
Erzin,36.9559,36.2,Clear,clear sky,290.37,290.52,290.37,290.37,1016,91,10000,10,0.54
Portland,45.5234,-122.6762,Clear,clear sky,288.56,287.49,287.04,289.82,1023,51,10000,1,0.33
Nome,64.5011,-165.4064,Clouds,broken clouds,271.57,265.35,270.93,272.15,1012,69,10000,75,6.69
Gravdal,68.1214,13.5031,Snow,light snow,274.15,274.15,274.15,274.15,1014,86,10000,40,1.03
Sioux Lookout,50.1001,-91.917,Clouds,broken clouds,281.15,280.47,281.15,281.15,1009,53,10000,75,1.54
Methóni,36.8197,21.7049,Clear,clear sky,289.15,288.95,286.15,292.04,1012,82,10000,0,2.06
Lhokseumawe,5.1801,97.1507,Clouds,overcast clouds,302.84,307.22,302.84,302.84,1011,69,10000,100,1.7
Vaitape,-16.5167,-151.75,Rain,light rain,300.83,303.69,300.83,300.83,1014,74,10000,78,4.62
Béboto,8.2668,16.939,Clouds,overcast clouds,297.19,297.63,297.19,297.19,1009,76,10000,94,1.66
Deming,32.2687,-107.7586,Clear,clear sky,282.15,281.13,282.15,282.15,1019,57,10000,1,2.06
Clyde River,70.4692,-68.5914,Clouds,overcast clouds,268.15,263.55,268.15,268.15,1031,100,10000,90,3.09
Mezen',65.8522,44.24,Clouds,broken clouds,273.79,269.95,273.79,273.79,1009,56,10000,63,3.58
Beringovskiy,63.05,179.3167,Clear,clear sky,271.96,271.96,271.96,271.96,1022,75,10000,0,0.66
Wukari,7.85,9.7833,Clouds,overcast clouds,299.26,299.26,299.26,299.26,1009,71,10000,100,2.91
Draguignan,43.5333,6.4667,Clouds,broken clouds,285.19,285.06,284.26,286.48,1008,100,8000,75,0.51
Ulaangom,49.9811,92.0667,Clouds,few clouds,291.28,290.01,291.28,291.28,1012,33,10000,21,3.16
Chiang Klang,19.2938,100.8617,Clouds,scattered clouds,301.15,304.36,301.15,301.15,1014,74,10000,40,1.54
Pundaguitan,6.3711,126.1689,Clouds,overcast clouds,301.34,304.63,301.34,301.34,1010,73,10000,87,2.45
Capreol,46.706,-80.9225,Clouds,overcast clouds,278.04,275.46,275.93,279.82,1013,81,10000,90,3.09
Cidreira,-30.1811,-50.2056,Clouds,few clouds,289.96,289.92,289.96,289.96,1022,85,10000,14,2.68
Mawlaik,23.6333,94.4167,Clouds,scattered clouds,312.86,314.12,312.86,312.86,1010,26,10000,27,0.84
Pesqueira,-8.3578,-36.6964,Clouds,overcast clouds,293.29,293.81,293.29,293.29,1013,94,10000,91,3.8
Tinskoy,56.1525,96.9161,Snow,light snow,275.36,271.9,275.36,275.36,1013,98,25,100,3.53
Port Macquarie,-31.4333,152.9167,Clouds,few clouds,295.64,295.59,295.37,295.93,1020,63,10000,16,2.87
Pacific Grove,36.6177,-121.9166,Clear,clear sky,285.99,285.63,284.82,288.15,1022,88,10000,3,0.75
Molde,62.7375,7.1591,Clouds,few clouds,274.15,271.24,274.15,274.15,1016,75,10000,20,2.57
Coyhaique,-45.5752,-72.0662,Clouds,overcast clouds,281.15,281.15,281.15,281.15,1012,93,10000,90,0.51
Yerbogachën,61.2767,108.0108,Clouds,few clouds,276.29,273.22,276.29,276.29,1020,48,10000,24,3.26
Paralímni,35.0375,33.9833,Clear,clear sky,291.47,291.0,290.15,292.59,1017,63,10000,0,2.06
Kiruna,67.8557,20.2251,Clouds,broken clouds,270.15,265.5,270.15,270.15,1008,74,10000,75,3.6
Tual,-5.6667,132.75,Rain,light rain,301.79,304.94,301.79,301.79,1010,69,10000,59,1.84
Avera,33.194,-82.5271,Clear,clear sky,291.79,292.32,291.15,292.15,1018,100,10000,1,3.09
Sisimiut,66.9395,-53.6735,Clouds,overcast clouds,275.18,272.16,275.18,275.18,1030,61,10000,100,2.91
Roura,4.7263,-52.3274,Clouds,overcast clouds,298.4,299.44,298.15,298.71,1011,94,10000,90,2.57
Port Blair,11.6667,92.75,Clouds,broken clouds,302.94,306.58,302.94,302.94,1012,65,10000,73,1.05
Beberibe,-4.1797,-38.1306,Clouds,scattered clouds,300.15,303.18,300.15,300.15,1011,83,10000,40,4.12
Karasjok,69.4719,25.5112,Clouds,broken clouds,270.15,267.12,270.15,270.15,1008,80,10000,75,2.06
Chapais,49.7834,-74.8492,Clear,clear sky,279.15,276.79,279.15,279.15,1013,52,10000,1,3.09
Pangnirtung,66.1451,-65.7125,Snow,light snow,274.63,271.37,274.63,274.63,1026,83,10000,100,3.07
Kāmyārān,34.7956,46.9355,Clear,clear sky,285.11,283.67,284.15,286.15,1022,50,10000,0,1.52
Port Keats,-14.25,129.55,Clouds,scattered clouds,304.53,307.79,304.53,304.53,1010,56,10000,34,2.31
Cherskiy,68.75,161.3,Clouds,overcast clouds,271.22,265.8,271.22,271.22,1022,89,3022,100,5.03
Takoradze,4.8845,-1.7554,Clouds,overcast clouds,299.71,299.71,299.71,299.71,1009,85,10000,100,2.61
Oranjemund,-28.55,16.4333,Clouds,broken clouds,287.81,287.39,287.81,287.81,1018,79,10000,71,8.04
Moussoro,13.6408,16.4901,Clouds,scattered clouds,298.19,297.01,298.19,298.19,1009,10,10000,33,5.35
Bonavista,48.6499,-53.1147,Clouds,overcast clouds,275.7,272.64,275.15,276.48,1007,93,10000,97,3.09
Laguna,38.421,-121.4238,Clear,clear sky,294.46,293.43,294.15,295.15,1019,30,10000,1,4.12
Mbandaka,0.0487,18.2603,Rain,light rain,294.58,295.26,294.58,294.58,1010,95,10000,100,1.31
Hibbing,47.4272,-92.9377,Clouds,broken clouds,280.31,279.02,279.15,281.15,1013,61,10000,75,2.02
Nikolskoye,59.7035,30.7861,Clear,clear sky,275.75,273.43,274.15,277.04,1015,75,10000,0,2.27
Kahului,20.8947,-156.47,Clouds,broken clouds,295.37,295.68,293.71,298.15,1016,78,10000,75,3.6
Camopi,3.1655,-52.3158,Clouds,overcast clouds,294.99,295.81,294.99,294.99,1011,99,10000,96,0.81
Taoudenni,22.6783,-3.9836,Clouds,scattered clouds,304.33,302.31,304.33,304.33,1007,18,10000,29,4.62
Asău,46.4333,26.4,Clouds,broken clouds,278.15,278.15,278.15,278.15,1014,63,10000,80,1.22
Grand Gaube,-20.0064,57.6608,Rain,moderate rain,297.59,298.47,297.59,297.59,1018,91,10000,80,4.47
Tura,25.5198,90.2201,Clouds,scattered clouds,309.83,308.15,309.83,309.83,1011,20,10000,43,2.56
Northam,51.0333,-4.2167,Clouds,few clouds,276.88,276.88,274.82,278.71,1011,79,10000,19,0.89
Kuressaare,58.2481,22.5039,Clear,clear sky,274.41,271.55,274.15,274.82,1014,93,10000,0,2.57
Shelton,41.3165,-73.0932,Clouds,scattered clouds,286.12,285.93,284.82,288.15,1009,94,10000,40,0.33
Birjand,32.8663,59.2211,Clear,clear sky,299.15,299.15,299.15,299.15,1017,13,10000,0,6.17
La Ronge,55.1001,-105.2842,Clouds,broken clouds,271.15,268.29,271.15,271.15,1019,69,10000,71,2.06
Coahuayana Viejo,18.7333,-103.6833,Clouds,broken clouds,296.01,296.7,296.01,296.01,1013,90,10000,55,0.39
Dikson,73.5069,80.5464,Clouds,overcast clouds,265.0,258.72,265.0,265.0,1007,87,10000,96,4.15
Havelock,34.8791,-76.9013,Clear,clear sky,292.96,293.29,292.15,293.71,1018,88,10000,1,5.66
Ambanja,-13.6833,48.45,Clouds,few clouds,298.15,298.77,298.15,298.15,1012,79,10000,20,1.03
Suntar,62.1444,117.6319,Clear,clear sky,277.09,275.23,277.09,277.09,1022,51,10000,7,2.05
Rochegda,62.8,43.25,Clouds,scattered clouds,274.62,272.22,274.62,274.62,1012,50,10000,45,2.16
Assiniboia,49.6334,-105.9845,Clouds,broken clouds,279.15,276.79,279.15,279.15,1019,49,10000,67,3.09
Mattru,7.6244,-11.8332,Clouds,broken clouds,297.65,298.48,297.65,297.65,1010,89,10000,80,0.79
Mbeya,-8.9,33.45,Clouds,broken clouds,288.53,288.55,288.53,288.53,1016,93,10000,62,1.83
Faanui,-16.4833,-151.75,Clouds,broken clouds,300.81,303.65,300.81,300.81,1013,74,10000,73,4.73
Linxia Chengguanzhen,35.6003,103.2064,Clear,clear sky,292.37,290.79,292.37,292.37,1011,17,10000,0,1.78
Zambezi,-13.5432,23.1047,Clouds,scattered clouds,289.31,289.38,289.31,289.31,1014,92,10000,48,2.13
Lerwick,60.1545,-1.1494,Clouds,broken clouds,276.15,271.43,276.15,276.15,1015,87,10000,75,6.17
Namatanai,-3.6667,152.4333,Clouds,broken clouds,302.82,306.54,302.82,302.82,1008,66,10000,66,5.04
Sangar,63.9242,127.4739,Clouds,scattered clouds,273.02,270.8,273.02,273.02,1022,88,10000,28,1.8
Dandong,40.1292,124.3947,Clouds,broken clouds,290.17,288.92,290.17,290.17,1003,38,10000,84,7.01
Port Pirie,-33.1833,138.0167,Clear,clear sky,296.15,295.32,296.15,296.15,1022,31,10000,0,3.6
Buchanan,5.8808,-10.0467,Clouds,broken clouds,298.15,299.16,298.15,298.15,1009,94,10000,75,2.57
Bundaberg,-24.85,152.35,Rain,light rain,298.15,298.09,298.15,298.15,1018,53,10000,75,7.72
Barabai,-2.5833,115.3833,Clouds,broken clouds,307.72,311.42,307.72,307.72,1009,46,10000,65,1.01
Riyadh,24.6877,46.7219,Rain,light rain,301.04,299.9,299.15,302.15,1016,23,10000,75,4.12
Westport,41.1415,-73.3579,Clouds,scattered clouds,287.01,286.91,285.15,288.15,1009,94,10000,40,2.9
Palimbang,6.2106,124.1894,Clouds,broken clouds,302.82,307.4,302.82,302.82,1011,70,10000,67,2.3
Alyangula,-13.8483,136.4192,Clouds,broken clouds,305.15,310.84,305.15,305.15,1011,62,10000,75,5.66
Oktyabr'skiy,54.4815,53.471,Clouds,overcast clouds,280.92,277.81,280.92,280.92,1018,67,10000,94,5.35
Port Maria,18.3685,-76.8895,Clear,clear sky,294.82,295.5,294.82,294.82,1014,94,10000,4,3.29
Amapá,1.0,-52.0,Clouds,scattered clouds,294.63,295.42,294.63,294.63,1011,99,10000,39,0.36
Pokhara,28.2333,83.9833,Clouds,few clouds,306.19,303.79,306.19,306.19,1013,10,10000,22,3.8
Jurm,36.8648,70.8342,Clear,clear sky,293.74,292.59,293.74,293.74,1019,28,10000,0,1.18
Manggar,-2.8833,108.2667,Rain,heavy intensity rain,302.86,306.83,302.86,302.86,1010,67,10000,82,3.42
Rognan,67.0953,15.3878,Snow,light snow,273.12,270.43,272.59,274.26,1012,84,527,91,2.19
Sulangan,11.1373,123.7228,Clouds,scattered clouds,300.53,303.08,300.53,300.53,1011,74,10000,28,3.77
Coihueco,-36.6167,-71.8333,Clouds,few clouds,283.03,282.62,280.15,285.93,1016,100,10000,12,1.54
Tashla,51.7716,52.7427,Clear,clear sky,281.37,279.31,281.37,281.37,1022,64,10000,1,3.35
Awjilah,29.1081,21.2869,Clear,clear sky,297.24,296.02,297.24,297.24,1014,12,10000,7,5.21
Airai,-8.9266,125.4092,Clouds,broken clouds,297.93,297.59,297.93,297.93,1011,43,10000,61,1.13
Flin Flon,54.7682,-101.865,Clouds,broken clouds,268.35,265.02,268.35,268.35,1018,78,10000,59,2.06
Guerrero Negro,27.9769,-114.0611,Clear,clear sky,288.25,287.98,288.25,288.25,1018,83,10000,0,5.4
Petropavlivka,48.4564,36.4367,Clear,clear sky,282.83,280.73,282.83,282.83,1022,58,10000,7,4.06
Ostrovnoy,68.0531,39.5131,Clouds,overcast clouds,267.44,262.26,267.44,267.44,1008,80,10000,85,3.53
Ahipara,-35.1667,173.1667,Clouds,scattered clouds,289.48,288.89,289.48,289.48,1023,66,10000,26,4.22
Port Victoria,0.0939,33.9756,Rain,light rain,294.42,294.69,294.42,294.42,1012,80,10000,100,2.96
Chagoda,59.164,35.3285,Clouds,overcast clouds,275.13,271.94,275.13,275.13,1016,76,10000,100,3.11
Devonport,-41.1667,146.35,Clouds,scattered clouds,289.57,289.33,289.26,289.82,1023,79,10000,27,3.13
Douglas,41.3,-96.167,Clouds,overcast clouds,288.08,287.06,285.93,291.15,1014,55,10000,90,2.57
Lyskovo,56.0328,45.0422,Rain,light rain,278.27,273.88,278.27,278.27,1017,74,10000,45,6.83
Alamosa,37.4695,-105.87,Clear,clear sky,277.15,273.71,277.15,277.15,1023,70,10000,1,4.12
Fenelon Falls,44.5334,-78.7496,Clouds,overcast clouds,280.68,278.64,279.82,281.15,1010,93,10000,100,3.09
Neuquén,-38.9516,-68.0591,Clear,clear sky,284.15,283.73,284.15,284.15,1016,93,10000,0,1.97
Luanda,-8.8368,13.2343,Clouds,broken clouds,299.15,299.15,299.15,299.15,1007,89,9000,75,1.03
Morondava,-20.2833,44.2833,Clear,clear sky,298.97,299.44,298.97,298.97,1014,70,10000,1,2.66
Villamontes,-21.25,-63.5,Clouds,broken clouds,289.02,288.73,289.02,289.02,1021,79,10000,75,1.84
Leticia,-4.2153,-69.9406,Rain,light rain,298.15,299.32,298.15,298.15,1012,100,10000,75,1.1
Sørland,67.667,12.6934,Snow,light snow,274.15,274.15,274.15,274.15,1014,86,10000,40,1.03
Hukuntsi,-24.0,21.75,Clouds,scattered clouds,292.54,291.55,292.54,292.54,1013,39,10000,39,4.28
Tasiilaq,65.6145,-37.6368,Fog,fog,272.15,270.19,272.15,272.15,1027,100,450,90,1.54
Ribeira Brava,32.65,-17.0667,Clouds,broken clouds,284.88,284.28,282.04,287.59,1013,83,10000,65,1.79
Magalia,39.8121,-121.5783,Clear,clear sky,293.78,292.63,293.15,295.15,1020,28,10000,1,2.57
Belmonte,-15.8631,-38.8828,Clouds,broken clouds,296.15,296.8,296.15,296.15,1015,88,8000,75,2.57
Oppdal,62.5943,9.6912,Clouds,overcast clouds,267.1,267.1,267.1,267.1,1019,96,1658,100,0.77
Deputatsky,69.3,139.9,Clouds,few clouds,268.94,268.94,268.94,268.94,1023,76,10000,16,1.33
Arrondissement de Clermont,49.5,2.4167,Mist,mist,278.92,276.52,278.71,279.15,1005,93,5000,75,3.09
Campos Altos,-19.6961,-46.1714,Clouds,overcast clouds,288.22,287.48,288.22,288.22,1016,65,10000,90,1.09
Henties Bay,-22.116,14.2845,Clouds,broken clouds,288.15,288.16,288.15,288.15,1014,94,10000,69,1.34
Luwuk,-0.9516,122.7875,Clouds,scattered clouds,303.56,307.23,303.56,303.56,1011,62,10000,49,1.83
Constantine,36.365,6.6147,Clear,clear sky,284.15,283.45,284.15,284.15,1011,82,10000,0,3.09
Otane,-39.8833,176.6333,Clear,clear sky,288.2,287.54,287.59,288.71,1020,68,10000,0,1.34
Petropavlovsk-Kamchatskiy,53.0452,158.6483,Clouds,few clouds,280.15,276.58,280.15,280.15,1012,65,10000,20,6.0
Wamba,8.9333,8.6,Clouds,overcast clouds,297.5,298.03,297.5,297.5,1009,78,10000,97,1.51
Port Augusta,-32.5,137.7667,Clear,clear sky,297.62,296.93,296.15,298.15,1022,31,10000,0,3.6
Pascagoula,30.3658,-88.5561,Clouds,few clouds,295.31,296.04,294.26,296.15,1016,94,10000,20,4.12
Maryville,35.7565,-83.9705,Clouds,overcast clouds,293.35,293.1,290.93,296.15,1015,64,10000,90,1.63
Herat Province,34.5,62.0,Clear,clear sky,298.15,297.28,298.15,298.15,1015,22,10000,0,2.57
Broken Hill,-31.95,141.4333,Clear,clear sky,295.15,294.03,295.15,295.15,1022,24,10000,0,3.6
Khartoum,15.5518,32.5324,Clouds,scattered clouds,303.71,303.14,303.71,303.71,1010,37,10000,37,1.34
Olot,42.181,2.4901,Rain,light rain,284.06,283.79,283.15,285.37,1007,99,10000,98,0.33
Haines Junction,60.7522,-137.5108,Clouds,overcast clouds,278.15,277.05,278.15,278.15,1010,45,10000,91,1.54
Togur,58.3631,82.8265,Rain,light rain,280.21,277.16,280.21,280.21,1011,91,10000,100,4.79
Bonito Oriental,15.7477,-85.7356,Clear,clear sky,295.99,296.39,295.99,295.99,1012,79,10000,4,1.45
Kailua,21.4022,-157.7394,Rain,light rain,295.19,295.75,292.59,297.15,1016,88,10000,90,5.14
Uray,60.1247,64.7758,Clouds,overcast clouds,279.87,276.46,279.87,279.87,1004,68,10000,99,5.42
Doha,25.2867,51.5333,Rain,light rain,305.04,303.73,304.82,305.15,1011,29,10000,75,3.09
Chokurdakh,70.6333,147.9167,Clouds,overcast clouds,270.46,264.81,270.46,270.46,1021,92,1620,99,5.09
Lavrentiya,65.5833,-171.0,Clear,clear sky,268.9,265.02,268.9,268.9,1017,80,10000,7,2.56
Voyvozh,62.892,54.9635,Clouds,overcast clouds,275.22,272.12,275.22,275.22,1006,71,10000,100,3.02
Husavik,66.0449,-17.3389,Clear,clear sky,269.15,266.76,269.15,269.15,1027,93,10000,0,1.54
Miranda,3.2499,-76.2281,Clouds,broken clouds,293.15,293.82,293.15,293.15,1019,100,10000,75,1.54
Makkaveyevo,51.7533,113.9454,Clouds,broken clouds,277.15,272.78,277.15,277.15,1005,33,10000,82,6.0
Fairbanks,64.8378,-147.7164,Clear,clear sky,283.18,280.87,280.93,285.15,1002,24,10000,1,0.59
Marawi,7.9986,124.2928,Clouds,overcast clouds,302.59,308.42,302.59,302.59,1010,77,10000,94,2.68
Buraidah,26.326,43.975,Clear,clear sky,296.15,295.89,296.15,296.15,1016,53,6000,0,2.06
Andernach,50.4333,7.4,Clouds,overcast clouds,282.8,280.61,281.48,283.71,1002,83,10000,100,4.24
Fonte Boa,-2.4959,-66.2662,Rain,moderate rain,295.46,296.33,295.46,295.46,1012,99,10000,100,1.26
Odienné,9.51,-7.5692,Clouds,broken clouds,296.33,296.71,296.33,296.33,1009,77,10000,76,1.84
Tungor,53.3808,142.9564,Clouds,few clouds,274.29,269.59,274.29,274.29,1016,69,10000,15,5.13
Oddur,4.1213,43.8894,Clouds,few clouds,299.56,299.56,299.56,299.56,1012,70,10000,20,4.76
Kamaishi,39.2667,141.8833,Rain,heavy intensity rain,286.15,285.96,286.15,286.15,1011,94,5000,75,0.51
Carnaíba,-8.7,-37.6667,Clouds,broken clouds,294.22,294.84,294.22,294.22,1012,94,10000,81,1.85
Phulbāni,20.4667,84.2333,Clouds,broken clouds,313.02,310.78,313.02,313.02,1010,14,10000,70,1.22
Maceió,-9.6658,-35.7353,Clouds,scattered clouds,296.15,297.12,296.15,296.15,1013,100,10000,40,2.06
Harrismith,-28.2728,29.1295,Clouds,few clouds,282.2,282.2,282.2,282.2,1021,57,10000,12,1.27
North Bend,43.4065,-124.2243,Clouds,broken clouds,283.34,282.69,282.59,284.15,1026,87,10000,75,2.06
Nova Viçosa,-17.8919,-39.3719,Clouds,overcast clouds,296.72,297.35,296.72,296.72,1015,85,10000,93,2.25
Caniço,32.6333,-16.85,Clouds,scattered clouds,285.17,284.31,282.04,289.15,1014,72,10000,40,2.57
Ulladulla,-35.35,150.4667,Clouds,few clouds,294.12,293.66,292.04,296.15,1021,53,10000,20,3.6
Killybegs,54.6333,-8.45,Rain,light rain,278.76,276.48,278.76,278.76,1015,78,10000,96,2.87
Morón,-34.6534,-58.6198,Clouds,scattered clouds,288.91,288.94,287.04,290.37,1025,92,10000,46,2.11
Tevaitoa,-16.7833,-151.5,Clouds,broken clouds,301.0,303.91,301.0,301.0,1014,73,10000,72,4.72
Burns Lake,54.2331,-125.7533,Rain,light rain,279.15,277.18,279.15,279.15,1017,93,10000,100,2.57
Salamiyah,35.0113,37.0532,Clear,clear sky,294.63,293.62,294.63,294.63,1017,30,10000,3,1.58
Codrington,-38.2667,141.9667,Clear,clear sky,293.06,292.46,293.06,293.06,1022,52,10000,7,3.7
Tortolì,39.9256,9.6572,Rain,moderate rain,289.15,289.26,289.15,289.15,1010,94,10000,75,1.03
Kita,13.0349,-9.4895,Clouds,overcast clouds,305.61,304.63,305.61,305.61,1005,31,10000,96,2.22
Saint-François,46.4154,3.9054,Clouds,overcast clouds,282.89,281.62,282.59,283.15,1007,81,10000,90,2.57
Nowy Dwór Gdański,54.2131,19.1177,Clear,clear sky,277.61,274.59,275.37,279.26,1008,70,10000,0,3.6
Vila Franca do Campo,37.7167,-25.4333,Clouds,broken clouds,287.15,286.36,287.15,287.15,1020,67,10000,75,1.54
Ţahţā,26.7693,31.5021,Clear,clear sky,292.68,291.42,292.15,293.15,1010,28,10000,0,2.06
Durrës,41.3231,19.4414,Clear,clear sky,284.15,283.58,284.15,284.15,1012,87,10000,0,1.54
Bilibino,68.0546,166.4372,Clouds,overcast clouds,270.94,268.72,270.94,270.94,1021,78,10000,97,1.59
Necochea,-38.5473,-58.7368,Clear,clear sky,285.93,285.69,285.93,285.93,1021,93,10000,10,0.45
Zabul Province,32.25,67.25,Clouds,broken clouds,295.79,294.71,295.79,295.79,1014,23,10000,66,3.06
Rāvar,31.2656,56.8055,Clouds,scattered clouds,301.06,299.77,301.06,301.06,1010,17,10000,32,1.07
Merke,42.8728,73.1786,Clear,clear sky,300.27,299.46,300.27,300.27,1013,25,10000,0,1.64
Souillac,-20.5167,57.5167,Rain,light rain,299.15,299.15,299.15,299.15,1018,89,10000,75,6.17
Lompoc,34.6391,-120.4579,Clear,clear sky,284.38,283.83,283.15,285.93,1022,87,10000,0,2.57
Kidal,18.4411,1.4078,Clouds,broken clouds,303.59,301.64,303.59,303.59,1006,11,10000,53,3.06
Bengkulu,-3.8004,102.2655,Clouds,overcast clouds,302.1,305.41,302.1,302.1,1012,68,10000,88,2.14
Camaçari,-12.6975,-38.3242,Clouds,broken clouds,300.15,302.35,300.15,300.15,1013,74,10000,75,2.57
Santa Cruz de la Sierra,-17.8,-63.1667,Clouds,broken clouds,294.15,293.87,294.15,294.15,1019,60,10000,75,4.63
El Dorado,38.7666,-120.5177,Clear,clear sky,288.86,287.11,287.04,292.15,1024,24,10000,1,3.42
Simao,22.7886,100.9748,Clouds,broken clouds,297.56,297.54,297.56,297.56,1015,57,10000,51,1.33
Santa Fe,-31.6333,-60.7,Clear,clear sky,288.17,287.74,287.59,288.71,1018,77,10000,0,0.45
Pyapon,16.2833,95.6833,Clouds,few clouds,307.35,310.66,307.35,307.35,1011,46,10000,19,1.9
Cabra,37.4725,-4.4421,Clouds,broken clouds,286.48,285.96,286.48,286.48,1009,80,10000,65,2.61
Tilichiki,60.4667,166.1,Clouds,overcast clouds,273.19,271.3,273.19,273.19,1022,99,69,99,1.59
Bryan,30.6744,-96.37,Clouds,overcast clouds,298.03,298.74,297.59,298.15,1009,83,10000,90,6.69
Turangi,-39.0,175.9333,Clear,clear sky,283.03,283.03,283.03,283.03,1022,67,10000,2,0.97
Gelemso,8.8167,40.5167,Rain,light rain,291.32,291.28,291.32,291.32,1015,80,8433,91,1.06
York,40.1254,-77.0,Clear,clear sky,292.81,292.5,291.48,294.15,1009,64,10000,1,2.95
Kushmurun,52.4503,64.6311,Clouds,overcast clouds,284.81,283.39,284.81,284.81,1015,52,10000,88,4.89
Cururupu,-1.8283,-44.8683,Clouds,overcast clouds,296.24,297.03,296.24,296.24,1010,93,10000,100,0.73
Dolzhanskaya,46.6311,37.8039,Clouds,broken clouds,282.59,279.08,282.59,282.59,1016,100,10000,74,8.05
Cajazeiras,-6.8903,-38.5553,Rain,heavy intensity rain,294.88,295.28,294.88,294.88,1011,83,10000,47,1.73
Jiexiu,37.0244,111.9125,Clear,clear sky,292.55,291.02,292.55,292.55,1007,18,10000,8,9.86
Cotonou,6.3654,2.4183,Clouds,few clouds,298.15,299.16,298.15,298.15,1008,94,6000,20,1.03
Ambilobe,-13.2,49.05,Clear,clear sky,298.87,299.56,298.87,298.87,1013,79,10000,4,1.7
Anito,12.4497,125.2886,Clouds,few clouds,301.9,304.52,301.9,301.9,1011,65,10000,19,4.19
Goya,-29.14,-59.2626,Clear,clear sky,285.26,284.51,285.26,285.26,1022,76,10000,0,1.48
Aksarka,66.5606,67.7975,Clouds,overcast clouds,269.54,263.93,269.54,269.54,1006,86,10000,99,4.68
Wau,7.7029,27.9953,Rain,light rain,298.32,298.82,298.32,298.32,1009,74,10000,92,2.5
Qandala,11.472,49.8728,Clouds,overcast clouds,303.37,306.84,303.37,303.37,1012,62,10000,90,1.04
Yekaterinoslavka,50.3734,129.1139,Clear,clear sky,285.92,283.75,285.92,285.92,1005,19,10000,2,4.94
Poum,-20.2333,164.0167,Clear,clear sky,297.88,297.79,297.88,297.88,1014,53,10000,7,3.06
Hamina,60.5697,27.1979,Clear,clear sky,274.51,272.89,273.15,275.93,1013,86,10000,0,1.54
Harper,4.375,-7.7169,Clouds,overcast clouds,299.48,299.48,299.48,299.48,1010,84,10000,88,2.41
Tezu,27.9167,96.1667,Clouds,broken clouds,310.66,308.48,310.66,310.66,1011,16,10000,66,2.4
Faya,18.3851,42.4509,Clouds,scattered clouds,288.65,288.14,288.15,289.15,1024,72,10000,40,2.12
Yinchuan,38.4681,106.2731,Clouds,broken clouds,294.11,292.68,294.11,294.11,1007,16,10000,76,3.82
Amuntai,-2.4177,115.2494,Clouds,overcast clouds,308.21,311.76,308.21,308.21,1009,44,10000,90,0.87
Moree,-29.4667,149.85,Clouds,broken clouds,298.15,297.57,298.15,298.15,1021,33,10000,74,2.06
Kalmunai,7.4167,81.8167,Clouds,overcast clouds,303.49,307.31,303.49,303.49,1012,63,10000,86,2.07
Sagaing,21.8787,95.9797,Clouds,broken clouds,300.15,302.7,300.15,300.15,1013,78,6000,75,4.63
Payson,40.0444,-111.7321,Clear,clear sky,283.65,281.98,282.04,286.15,1025,47,10000,1,4.63
Minador do Negrão,-9.3053,-36.8647,Clouds,broken clouds,294.43,295.09,294.43,294.43,1013,95,10000,68,1.62
Neiafu,-18.65,-173.9833,Rain,light rain,300.15,303.78,300.15,300.15,1011,89,10000,40,3.09
Virginia Beach,36.8529,-75.978,Clouds,broken clouds,295.28,295.12,294.82,296.15,1014,60,10000,75,5.66
Ulagan,50.6321,87.9563,Clouds,broken clouds,290.13,289.14,290.13,290.13,1013,48,10000,62,3.32
Karasburg,-28.0167,18.75,Clouds,broken clouds,283.77,282.98,283.77,283.77,1017,80,10000,63,2.58
Paamiut,61.994,-49.6678,Clouds,overcast clouds,275.53,275.53,275.53,275.53,1029,79,10000,100,1.05
Salina Cruz,16.1667,-95.2,Clouds,scattered clouds,300.91,304.66,300.91,300.91,1011,80,10000,35,6.23
Hay River,60.8156,-115.7999,Clouds,scattered clouds,268.66,265.7,268.15,269.15,1022,63,10000,34,1.84
La Santisima Trinidad,-14.8333,-64.9,Clouds,overcast clouds,291.24,290.91,291.24,291.24,1016,69,10000,98,2.1
Richards Bay,-28.783,32.0377,Clear,clear sky,292.52,292.91,292.52,292.52,1014,92,10000,6,3.8
Miandrivazo,-19.5167,45.4667,Clear,clear sky,298.79,299.21,298.79,298.79,1015,69,10000,0,1.54
Upernavik,72.7868,-56.1549,Clouds,few clouds,264.22,258.7,264.22,264.22,1037,94,10000,18,3.2
Tomari,47.7658,142.0683,Clouds,broken clouds,279.7,276.96,279.7,279.7,1011,83,10000,70,3.92
Port-Gentil,-0.7193,8.7815,Clouds,overcast clouds,300.38,303.52,300.38,300.38,1009,81,10000,100,3.01
Hamakita,34.8,137.7833,Rain,moderate rain,292.21,292.78,291.15,292.59,1009,100,9000,75,7.2
Yulara,-25.2406,130.9889,Clear,clear sky,298.15,297.2,298.15,298.15,1020,19,10000,0,4.63
Kilindoni,-7.9139,39.6668,Rain,moderate rain,299.54,299.54,299.54,299.54,1013,83,9847,20,5.46
Kavieng,-2.5744,150.7967,Rain,light rain,302.33,305.52,302.33,302.33,1008,66,10000,94,5.02
Aksu,41.1231,80.2644,Clear,clear sky,299.15,299.15,299.15,299.15,1013,9,10000,0,0.61
Itarema,-2.9248,-39.9167,Clouds,overcast clouds,297.77,298.59,297.77,297.77,1010,88,10000,100,3.07
Mugur-Aksy,50.35,90.5,Clouds,few clouds,282.3,280.37,282.3,282.3,1015,56,10000,17,3.47
Kilcreggan,55.9846,-4.821,Fog,fog,273.72,273.72,273.15,274.82,1014,100,10000,100,0.51
Panticeu,47.0333,23.5667,Clear,clear sky,282.67,282.21,282.15,283.15,1012,93,10000,0,1.54
Serenje,-13.2325,30.2352,Clouds,few clouds,289.77,289.86,289.77,289.77,1016,91,10000,12,2.76
Alice Springs,-23.7,133.8833,Clear,clear sky,296.77,295.71,296.48,297.15,1019,20,10000,0,6.69
Port Hardy,50.6996,-127.4199,Rain,moderate rain,282.15,279.24,282.15,282.15,1022,100,10000,90,5.66
Abu Samrah,35.3029,37.1841,Clear,clear sky,294.65,293.67,294.65,294.65,1017,31,10000,4,1.79
Ayorou,14.7308,0.9174,Clouds,few clouds,302.83,301.23,302.83,302.83,1006,23,10000,23,3.7
Tefé,-3.3542,-64.7114,Clouds,overcast clouds,295.55,296.43,295.55,295.55,1012,99,7676,100,0.2
Houma,29.5958,-90.7195,Clouds,overcast clouds,297.18,297.94,297.04,297.59,1015,88,10000,90,5.14
Wanning,18.8003,110.3967,Clouds,broken clouds,300.33,303.4,300.33,300.33,1013,81,10000,82,2.94
Severobaykal'sk,55.65,109.3167,Clear,clear sky,272.3,272.3,272.3,272.3,1014,59,10000,9,0.58
Baiyin,36.5583,104.2081,Clear,clear sky,292.15,290.6,292.15,292.15,1020,19,10000,0,5.0
Dimāpur,25.9,93.7333,Haze,haze,307.15,307.62,307.15,307.15,1013,36,2000,13,2.57
Ridgecrest,35.6225,-117.6709,Clear,clear sky,295.15,293.61,294.15,295.93,1019,8,10000,1,4.12
Gandara,12.013,124.8118,Clear,clear sky,303.75,307.4,303.75,303.75,1010,61,10000,10,3.39
Cabinda,-5.55,12.2,Rain,light rain,298.84,299.79,298.84,298.84,1010,89,10000,100,1.08
Khāsh,28.2211,61.2158,Clear,clear sky,299.11,299.11,299.11,299.11,1012,19,10000,1,2.05
Bathsheba,13.2167,-59.5167,Clouds,scattered clouds,299.15,299.15,299.15,299.15,1013,65,10000,40,9.26
Pevek,69.7008,170.3133,Clouds,overcast clouds,269.52,266.45,269.52,269.52,1020,83,9228,99,2.01
San Andrés,12.5847,-81.7006,Clouds,few clouds,300.15,302.7,300.15,300.15,1013,78,10000,20,3.6
Savonlinna,61.8699,28.88,Clouds,overcast clouds,273.15,273.15,273.15,273.15,1012,80,10000,90,1.03
Bozova,37.3625,38.5267,Clear,clear sky,293.19,292.16,291.15,295.15,1019,35,10000,0,4.12
Wairoa,-39.0333,177.3667,Clear,clear sky,289.26,288.62,289.26,289.26,1023,65,10000,1,0.89
Oistins,13.0667,-59.5333,Clouds,scattered clouds,299.15,299.15,299.15,299.15,1013,65,10000,40,9.26
Tairua,-37.0167,175.85,Clouds,few clouds,289.26,288.73,289.26,289.26,1023,69,10000,18,2.68
Lashio,22.9333,97.75,Clear,clear sky,308.15,307.24,308.15,308.15,1011,27,10000,0,1.37
Winslow,35.0242,-110.6974,Clouds,few clouds,282.15,279.87,282.15,282.15,1020,53,10000,20,4.12
Oga,46.4631,10.347,Clouds,broken clouds,280.29,277.86,276.15,284.26,1008,87,10000,75,3.6
Brownwood,31.7093,-98.9912,Clouds,overcast clouds,293.15,293.66,293.15,293.15,1009,94,10000,100,3.09
Ca Mau,9.1769,105.15,Clouds,overcast clouds,307.19,310.97,307.19,307.19,1010,48,10000,98,4.65
Strezhevoy,60.7333,77.5889,Rain,light rain,277.15,275.35,277.15,277.15,1005,93,9000,75,2.0
Ucluelet,48.9329,-125.5528,Clouds,overcast clouds,283.15,281.42,283.15,283.15,1025,89,10000,100,3.45
Pauini,-7.7136,-66.9764,Clouds,overcast clouds,295.09,295.9,295.09,295.09,1012,98,10000,100,1.12
Camacha,33.0833,-16.3333,Clouds,few clouds,288.15,287.72,288.15,288.15,1014,77,10000,20,2.06
Huarmey,-10.0681,-78.1522,Clouds,broken clouds,292.62,292.92,292.62,292.62,1014,88,10000,55,3.61
Melilla,35.2937,-2.9383,Clouds,broken clouds,287.94,287.35,284.15,290.15,1011,72,10000,75,4.12
Bilma,18.6853,12.9164,Clear,clear sky,300.84,299.52,300.84,300.84,1009,10,10000,5,3.19
Esperance,-33.8667,121.9,Clouds,overcast clouds,303.15,301.28,303.15,303.15,1012,13,10000,98,10.29
Brigantine,39.4101,-74.3646,Clouds,scattered clouds,293.1,292.72,289.26,296.15,1010,60,10000,40,3.09
Bahía Solano,6.2262,-77.4044,Rain,moderate rain,298.18,299.04,298.18,298.18,1012,88,8274,99,1.32
Schramberg,48.224,8.3858,Rain,light rain,281.11,280.66,280.93,281.48,1001,60,10000,100,1.34
Sistranda,63.7256,8.834,Clouds,scattered clouds,273.15,270.06,273.15,273.15,1016,86,10000,40,2.57
Manakara,-22.1333,48.0167,Clouds,few clouds,296.05,296.77,296.05,296.05,1019,91,10000,20,1.35
Basco,20.4487,121.9702,Clouds,broken clouds,299.83,301.09,299.83,299.83,1011,64,10000,74,2.17
Colonia Rincón Viejo,16.9,-95.05,Clouds,broken clouds,298.76,299.54,298.76,298.76,1010,83,10000,80,6.35
Ajdabiya,30.7554,20.2263,Clear,clear sky,298.11,296.95,298.11,298.11,1014,11,10000,4,4.76
Barra de Tecoanapa,16.5167,-98.75,Clouds,scattered clouds,299.59,299.59,299.59,299.59,1013,75,10000,47,2.3
Byron Bay,-28.65,153.6167,Clouds,scattered clouds,294.87,294.77,293.71,296.15,1021,64,10000,40,4.12
Peleduy,59.6289,112.7406,Clouds,scattered clouds,275.42,271.29,275.42,275.42,1018,69,10000,49,4.6
Ketchikan,55.3422,-131.6461,Rain,moderate rain,282.15,279.07,282.15,282.15,1011,93,4828,90,6.17
Caravelas,-17.7125,-39.2481,Rain,light rain,296.21,296.82,296.21,296.21,1015,86,10000,84,1.48
Calvinia,-31.4707,19.776,Clouds,overcast clouds,283.41,282.68,283.41,283.41,1016,84,10000,100,1.99
Durban,-29.8579,31.0292,Clear,clear sky,292.41,292.69,289.82,294.26,1014,88,10000,0,3.09
Dali,25.7,100.1833,Clouds,broken clouds,292.44,291.76,292.44,292.44,1018,51,10000,82,1.42
Prince Rupert,54.3161,-130.3201,Rain,moderate rain,282.15,278.9,282.15,282.15,1013,93,4828,90,6.69
