City,LAT,LON,Weather,Desription,Temp,Temp Feels,Temp Min,Temp Max,Pressure,Humidity,Visibility,Clouds,Wind Speed
Iqaluit,63.7506,-68.5145,Snow,snow,266.04,258.27,265.93,266.15,1025,86,10000,90,6.69
Escanaba,45.7453,-87.0646,Clouds,overcast clouds,275.01,271.07,274.82,275.15,1012,93,10000,90,4.12
Atuona,-9.8,-139.0333,Clouds,overcast clouds,299.74,299.74,299.74,299.74,1014,73,10000,95,7.45
San Isidro,-12.1167,-77.05,Clouds,scattered clouds,290.95,290.93,290.37,291.48,1014,82,10000,40,5.14
East London,-33.0153,27.9116,Clear,clear sky,290.15,290.05,290.15,290.15,1008,82,10000,0,1.03
Cape Town,-33.9258,18.4232,Clouds,overcast clouds,289.26,289.38,288.71,289.82,1011,94,10000,90,4.12
Zhangjiakou,40.81,114.8794,Clouds,broken clouds,285.92,283.75,285.92,285.92,1013,19,10000,53,9.41
Svobodnyy,51.4,128.1333,Clouds,overcast clouds,292.24,290.88,292.24,292.24,996,26,10000,97,10.12
Yellowknife,62.456,-114.3525,Clouds,broken clouds,258.85,252.35,258.71,259.15,1018,61,10000,75,3.09
Korla,41.7597,86.1469,Clouds,scattered clouds,291.51,289.87,291.51,291.51,1026,18,10000,33,3.21
Albany,42.6001,-73.9662,Clouds,few clouds,275.69,272.25,274.26,277.04,1019,48,10000,20,3.6
Tuatapere,-46.1333,167.6833,Clouds,overcast clouds,281.48,281.08,281.48,281.48,1015,73,10000,93,1.34
Hithadhoo,-0.6,73.0833,Clear,clear sky,301.26,302.88,301.26,301.26,1012,61,10000,10,0.29
Vaini,-21.2,-175.2,Rain,heavy intensity rain,297.15,298.22,297.15,297.15,1008,100,10000,90,3.09
Broome,42.2506,-75.833,Clear,clear sky,274.06,272.37,272.04,276.15,1018,35,10000,1,1.54
Busselton,-33.65,115.3333,Clouds,scattered clouds,298.55,298.66,296.48,299.82,1019,58,10000,29,0.89
Tuktoyaktuk,69.4541,-133.0374,Clear,clear sky,260.15,251.08,260.15,260.15,1030,78,10000,1,6.17
Hong Kong,22.2855,114.1577,Rain,light rain,295.33,296.03,291.48,296.48,1015,93,10000,100,5.27
Mataura,-46.1927,168.8643,Clouds,overcast clouds,281.48,281.08,281.48,281.48,1015,73,10000,92,1.34
Wahpeton,46.2652,-96.6059,Clouds,overcast clouds,277.26,274.52,277.04,277.59,1006,93,10000,90,3.09
George Town,5.4112,100.3354,Clouds,few clouds,301.34,304.78,299.82,302.15,1012,74,10000,20,1.54
Bechem,7.0903,-2.025,Clouds,overcast clouds,295.59,296.42,295.59,295.59,1008,97,10000,100,1.9
Awjilah,29.1081,21.2869,Clear,clear sky,293.08,291.94,293.08,293.08,1016,31,10000,2,2.76
Santa María del Oro,25.9333,-105.3667,Clouds,overcast clouds,293.4,291.82,293.4,293.4,1013,13,10000,100,3.41
Khovd,48.0056,91.6419,Clouds,broken clouds,281.79,280.77,281.79,281.79,1022,16,10000,60,1.99
Rikitea,-23.1203,-134.9692,Rain,light rain,298.69,299.18,298.69,298.69,1018,72,10000,100,2.79
Sai Buri,6.7013,101.6168,Clouds,few clouds,304.15,309.58,304.15,304.15,1012,66,10000,20,3.09
Haukipudas,65.1765,25.3523,Clear,clear sky,274.37,272.73,273.71,275.15,1013,64,10000,0,1.54
Winslow,35.0242,-110.6974,Clear,clear sky,284.15,281.93,284.15,284.15,1009,24,10000,1,2.57
Areni,39.7191,45.1799,Clouds,broken clouds,293.15,292.56,293.15,293.15,1012,52,10000,75,5.14
San Patricio,28.017,-97.5169,Clouds,overcast clouds,296.19,297.0,295.93,296.48,1012,94,10000,90,5.14
Bluff,-46.6,168.3333,Clouds,overcast clouds,280.93,280.93,280.93,280.93,1015,76,10000,93,0.45
Hualmay,-11.0964,-77.6139,Clouds,few clouds,291.72,292.01,291.72,291.72,1014,91,10000,13,3.4
Gladstone,-23.85,151.25,Clouds,few clouds,299.15,299.15,299.15,299.15,1019,47,10000,16,7.72
Selikhino,50.3672,137.4996,Clouds,overcast clouds,288.88,287.19,288.88,288.88,1010,26,10000,100,4.45
Naze,28.3667,129.4833,Clouds,few clouds,296.15,295.97,296.15,296.15,1019,56,10000,20,4.12
Hamilton,39.1834,-84.5333,Clouds,broken clouds,289.14,288.05,287.59,290.37,1014,48,10000,75,4.12
Kavaratti,10.5669,72.642,Clear,clear sky,302.41,306.86,302.41,302.41,1011,72,10000,9,3.4
Dunedin,-45.8742,170.5036,Clouds,overcast clouds,280.93,277.64,280.93,280.93,1013,68,10000,100,5.81
Lorengau,-2.0226,147.2712,Clouds,scattered clouds,302.03,305.62,302.03,302.03,1009,70,10000,42,1.51
Ushuaia,-54.8,-68.3,Clouds,scattered clouds,278.15,275.99,278.15,278.15,989,93,10000,40,2.57
Samarai,-10.6167,150.6667,Clouds,overcast clouds,301.66,305.16,301.66,301.66,1010,72,10000,90,3.91
Puerto Ayora,-0.7393,-90.3518,Clouds,scattered clouds,296.8,297.62,296.8,296.8,1013,92,10000,32,2.05
Yanta,36.2411,115.6672,Clear,clear sky,298.59,297.48,298.59,298.59,1016,11,10000,1,5.39
Hobart,-42.8794,147.3294,Clouds,scattered clouds,291.41,290.47,290.93,292.04,1024,45,10000,40,2.57
Bengkulu,-3.8004,102.2655,Clouds,scattered clouds,302.55,305.97,302.55,302.55,1010,66,10000,26,3.48
Isangel,-19.55,169.2667,Clouds,broken clouds,299.15,299.15,299.15,299.15,1008,78,10000,75,6.17
Oudtshoorn,-33.5907,22.2014,Clear,clear sky,285.15,284.68,285.15,285.15,1010,87,10000,0,2.06
Avarua,-21.2078,-159.775,Clouds,few clouds,299.15,299.15,299.15,299.15,1013,83,10000,20,1.54
Ponta do Sol,32.6667,-17.1,Clouds,overcast clouds,286.29,285.59,283.71,288.71,1010,74,10000,87,1.34
Meulaboh,4.1363,96.1285,Clouds,overcast clouds,303.13,306.99,303.13,303.13,1010,65,10000,97,2.29
Concepción del Oro,24.6333,-101.4167,Clouds,overcast clouds,294.0,292.9,294.0,294.0,1012,29,10000,99,2.41
Clyde River,70.4692,-68.5914,Snow,light snow,269.15,269.15,269.15,269.15,1020,100,3621,90,0.47
Faya,18.3851,42.4509,Clouds,scattered clouds,288.65,288.14,288.15,289.15,1023,72,10000,40,1.94
Saint-Philippe,-21.3585,55.7679,Rain,light rain,296.54,297.23,296.15,297.15,1016,88,3600,75,8.75
Sitka,57.0531,-135.33,Clouds,overcast clouds,283.15,282.24,283.15,283.15,1008,66,10000,90,2.13
Dikson,73.5069,80.5464,Snow,light snow,272.83,266.48,272.83,272.83,1003,98,148,100,7.83
Cockburn Town,21.4612,-71.1419,Clear,clear sky,298.7,299.27,298.7,298.7,1015,75,10000,1,6.15
Chokurdakh,70.6333,147.9167,Clouds,overcast clouds,270.98,268.61,270.98,270.98,1008,85,10000,95,1.69
São José da Coroa Grande,-8.8978,-35.1478,Clouds,broken clouds,298.03,298.69,298.03,298.03,1011,81,10000,54,1.37
Rawson,-43.3002,-65.1023,Clouds,scattered clouds,289.39,288.35,289.39,289.39,1011,49,10000,42,2.69
Kapaa,22.0752,-159.319,Clouds,scattered clouds,295.83,296.06,294.26,297.15,1016,73,10000,40,3.6
Qaanaaq,77.484,-69.3632,Clouds,overcast clouds,274.64,271.39,274.64,274.64,1023,67,10000,100,3.06
Tongliao,43.6125,122.2653,Clouds,few clouds,292.38,290.8,292.38,292.38,1005,17,10000,21,8.22
Lleida,41.6167,0.6167,Mist,mist,283.14,283.14,282.04,284.26,1005,100,2700,100,0.51
Corner Brook,48.9667,-57.9484,Clouds,overcast clouds,280.62,277.12,279.82,283.15,1006,100,10000,90,6.17
Sechura,-5.5569,-80.8222,Clouds,broken clouds,294.52,294.64,294.52,294.52,1013,74,10000,82,5.4
Rocha,-34.4833,-54.3333,Clear,clear sky,283.51,282.85,283.51,283.51,1019,86,10000,0,2.26
Hasaki,35.7333,140.8333,Clouds,scattered clouds,291.05,290.23,289.15,292.04,1023,51,10000,40,5.66
Khatanga,71.9667,102.5,Snow,light snow,269.91,262.45,269.91,269.91,1012,93,506,100,8.39
Balikpapan,-1.2675,116.8289,Clouds,broken clouds,301.94,305.78,301.94,301.94,1010,72,10000,66,2.99
Punta Arenas,-53.15,-70.9167,Clouds,broken clouds,279.98,277.48,279.82,280.15,991,93,10000,75,3.6
Bambous Virieux,-20.3428,57.7575,Rain,light rain,298.15,299.0,298.15,298.15,1016,88,5000,75,4.63
Bogatić,44.8375,19.4806,Rain,moderate rain,281.48,279.56,281.48,281.48,1002,75,10000,99,3.15
Port Blair,11.6667,92.75,Clouds,overcast clouds,303.86,307.39,303.86,303.86,1011,60,10000,90,0.86
Fortuna,40.5982,-124.1573,Clear,clear sky,280.58,279.29,279.82,282.59,1017,93,10000,1,2.06
Varhaug,58.6147,5.6457,Clear,clear sky,273.67,271.93,273.15,274.15,1018,86,10000,0,1.54
Dingle,10.9995,122.6711,Clouds,scattered clouds,304.59,307.18,304.59,304.59,1011,53,10000,42,4.94
Liverpool,53.4106,-2.9779,Clouds,broken clouds,282.66,281.02,282.04,284.15,1011,82,10000,75,3.09
Narsaq,60.9167,-46.05,Rain,light rain,275.15,271.59,275.15,275.15,1028,93,5000,75,3.6
Berlevåg,70.8578,29.0864,Snow,light snow,270.15,265.5,270.15,270.15,1015,68,10000,40,3.6
Domoni,-12.2569,44.5319,Clouds,overcast clouds,300.57,303.61,300.57,300.57,1013,78,10000,86,1.39
Zemio,5.0314,25.1361,Clouds,overcast clouds,293.92,294.53,293.92,293.92,1011,95,10000,90,1.63
New Norfolk,-42.7826,147.0587,Clouds,scattered clouds,290.27,289.94,287.59,292.04,1023,73,10000,46,1.93
Kavieng,-2.5744,150.7967,Clouds,broken clouds,302.32,305.68,302.32,302.32,1009,67,10000,59,2.49
Macamic,48.7502,-78.9996,Clouds,scattered clouds,271.15,269.05,271.15,271.15,1019,80,10000,40,1.54
Johi,26.6921,67.6133,Clear,clear sky,311.27,308.7,311.27,311.27,1006,13,10000,0,2.97
Kaili,-3.4626,120.2147,Clouds,broken clouds,297.0,297.66,297.0,297.0,1012,85,5852,76,1.52
Codrington,-38.2667,141.9667,Clouds,overcast clouds,288.79,288.03,288.79,288.79,1027,62,10000,86,3.55
Kahului,20.8947,-156.47,Clouds,few clouds,295.94,296.44,294.26,298.15,1016,83,10000,20,3.09
Sulangan,11.1373,123.7228,Clouds,few clouds,300.93,302.81,300.93,300.93,1011,65,10000,18,3.48
Srednekolymsk,67.45,153.6833,Clouds,scattered clouds,272.16,268.6,272.16,272.16,1010,78,10000,49,2.85
Hilo,19.7297,-155.09,Clouds,scattered clouds,294.23,294.2,292.04,297.15,1016,69,10000,40,3.09
Listvyanskiy,54.4399,83.4984,Clouds,overcast clouds,284.26,282.81,284.26,284.26,1000,53,10000,100,0.45
Crixás,-14.5489,-49.9692,Clouds,broken clouds,295.26,295.64,295.26,295.26,1011,81,10000,53,0.66
Mount Gambier,-37.8333,140.7667,Clouds,overcast clouds,288.15,287.59,288.15,288.15,1027,72,10000,90,2.57
Kumul,42.8,93.45,Clouds,broken clouds,288.48,286.3,288.48,288.48,1027,9,10000,56,1.73
Pevek,69.7008,170.3133,Snow,light snow,270.15,267.8,270.15,270.15,1010,94,203,100,1.6
Tiksi,71.6872,128.8694,Clouds,overcast clouds,265.08,258.7,265.08,265.08,1013,81,10000,100,4.29
Tumaco,1.7986,-78.8156,Rain,light rain,298.18,299.01,298.18,298.18,1012,87,10000,100,1.03
Cananéia,-25.0147,-47.9267,Clouds,overcast clouds,293.5,293.97,293.5,293.5,1015,91,10000,99,1.93
Adrar,20.5022,-10.0711,Clouds,few clouds,297.82,296.94,297.82,297.82,1008,23,10000,12,3.91
Kaitangata,-46.2817,169.8464,Clouds,overcast clouds,280.37,276.33,280.37,280.37,1013,69,10000,99,7.6
Bredasdorp,-34.5322,20.0403,Rain,light rain,287.15,287.06,287.15,287.15,1011,94,10000,97,1.54
Kozhva,65.1073,57.0459,Clouds,overcast clouds,278.1,275.86,278.1,278.1,1000,73,10000,100,2.66
Kruisfontein,-34.0033,24.7314,Clouds,scattered clouds,289.26,289.17,289.26,289.26,1010,86,10000,33,0.45
Iwanai,42.9744,140.5089,Clear,clear sky,284.17,282.71,284.17,284.17,1020,53,10000,1,4.18
Cap Malheureux,-19.9842,57.6142,Clouds,overcast clouds,298.71,299.59,298.71,298.71,1016,87,10000,100,2.68
São Filipe,14.8961,-24.4956,Clouds,broken clouds,295.47,295.69,295.47,295.47,1012,74,10000,78,3.51
Oranjestad,12.524,-70.027,Clouds,few clouds,299.21,299.21,299.15,299.26,1012,83,10000,20,6.69
Makakilo City,21.3469,-158.0858,Clouds,overcast clouds,298.0,298.13,296.15,299.15,1016,61,10000,90,4.12
Russell,32.3502,-85.1999,Clear,clear sky,288.9,288.99,287.04,292.15,1019,94,10000,1,1.54
Asău,46.4333,26.4,Clouds,overcast clouds,277.59,277.59,277.59,277.59,1013,67,53,100,1.07
Padang,-0.9492,100.3543,Clouds,few clouds,304.15,309.58,304.15,304.15,1010,66,10000,20,2.06
Chapais,49.7834,-74.8492,Clear,clear sky,272.15,268.87,272.15,272.15,1016,55,10000,1,2.57
Norman Wells,65.282,-126.8329,Clouds,few clouds,264.15,259.37,264.15,264.15,1029,38,10000,20,2.57
Birobidzhan,48.8,132.95,Clouds,overcast clouds,290.84,289.53,290.84,290.84,1007,33,10000,99,4.91
Saskylakh,71.9167,114.0833,Clouds,broken clouds,264.64,258.38,264.64,264.64,1015,85,10000,51,4.03
San Miguel,13.4833,-88.1833,Clear,clear sky,299.06,299.72,299.06,299.06,1012,77,10000,0,0.4
Angoche,-16.2325,39.9086,Rain,moderate rain,298.64,299.52,298.64,298.64,1014,87,10000,88,2.42
Soyo,-6.1349,12.3689,Rain,light rain,299.3,299.3,299.3,299.3,1008,88,10000,100,3.13
Lohja,60.2486,24.0653,Clouds,overcast clouds,275.35,272.57,274.82,275.93,1010,95,10000,100,2.68
Flin Flon,54.7682,-101.865,Clouds,overcast clouds,272.8,268.02,272.8,272.8,1006,81,10000,100,4.63
Margate,51.3813,1.3862,Clouds,overcast clouds,278.47,276.08,278.15,278.71,995,81,10000,95,2.95
Nikolskoye,59.7035,30.7861,Clouds,broken clouds,276.32,273.46,275.93,277.15,1008,81,10000,75,3.0
Trenggalek,-8.05,111.7167,Clouds,broken clouds,301.2,304.76,301.2,301.2,1012,76,10000,80,3.41
Fairbanks,64.8378,-147.7164,Clear,clear sky,280.4,276.18,279.26,282.15,1004,37,10000,1,8.23
Gumdag,39.2061,54.5906,Clouds,scattered clouds,302.67,301.11,302.67,302.67,1009,23,10000,29,5.14
Severodvinsk,64.5635,39.8302,Clouds,overcast clouds,273.15,269.65,273.15,273.15,1008,74,10000,90,3.0
Lebu,-37.6167,-73.65,Clouds,broken clouds,285.02,284.51,285.02,285.02,1016,86,10000,63,3.76
Nekā,36.6508,53.299,Mist,mist,293.15,293.22,293.15,293.15,1009,77,5000,40,1.57
Bissorã,12.2231,-15.4475,Clear,clear sky,295.15,295.7,295.15,295.15,1008,88,10000,0,1.54
Benicarló,40.4165,0.4271,Clouds,scattered clouds,281.49,281.49,280.93,282.04,1005,95,10000,50,0.45
Sukhumi,43.0033,41.0153,Clouds,overcast clouds,284.03,283.63,284.03,284.03,1020,94,10000,100,2.66
Mogadishu,2.0371,45.3438,Clouds,broken clouds,301.15,304.36,301.15,301.15,1009,74,10000,75,2.11
Severo-Kuril'sk,50.6789,156.125,Snow,snow,273.83,268.14,273.83,273.83,1002,99,42,100,6.92
Osinki,52.8432,49.5132,Rain,light rain,282.87,280.89,282.87,282.87,1011,55,10000,100,3.83
Jamestown,42.097,-79.2353,Clouds,broken clouds,280.85,278.54,280.37,281.15,1017,42,10000,75,3.6
Iskateley,67.6803,53.1512,Snow,light snow,272.53,266.42,272.53,272.53,1002,91,414,100,7.04
Upernavik,72.7868,-56.1549,Clouds,overcast clouds,273.29,271.57,273.29,273.29,1022,73,10000,100,1.49
Acaraú,-2.8856,-40.12,Clouds,broken clouds,297.68,298.46,297.68,297.68,1009,87,10000,77,3.74
Sabang,5.8933,95.3214,Clouds,overcast clouds,301.87,305.45,301.87,301.87,1011,71,10000,87,2.1
Port-Cartier,50.0334,-66.8654,Clouds,overcast clouds,277.83,273.78,277.15,278.15,1002,93,10000,90,5.66
Ormara,25.2088,64.6357,Clear,clear sky,301.8,304.8,301.8,301.8,1009,68,10000,2,2.42
Ancud,-41.8697,-73.8203,Clouds,overcast clouds,284.76,284.59,283.15,286.48,1015,100,10000,90,3.6
Airai,-8.9266,125.4092,Clouds,broken clouds,297.04,296.48,297.04,297.04,1012,38,10000,71,0.94
Geraldton,-28.7667,114.6,Clouds,few clouds,306.15,304.76,306.15,306.15,1018,27,10000,18,5.66
Kloulklubed,7.0419,134.2556,Clouds,overcast clouds,301.15,305.72,301.15,301.15,1012,83,10000,90,4.63
Hermanus,-34.4187,19.2345,Clouds,overcast clouds,289.26,289.25,289.26,289.26,1012,89,10000,99,0.45
Saint Paul Harbor,57.79,-152.4072,Rain,moderate rain,279.15,274.71,279.15,279.15,998,87,6437,90,7.72
Nurota,40.5614,65.6886,Clear,clear sky,301.15,299.92,301.15,301.15,1012,21,8000,0,10.29
Mahébourg,-20.4081,57.7,Rain,light rain,298.15,299.0,298.15,298.15,1016,88,5000,75,4.63
Mar del Plata,-38.0023,-57.5575,Clouds,scattered clouds,284.59,284.4,280.15,286.48,1019,100,8000,40,1.54
Port Hardy,50.6996,-127.4199,Clouds,overcast clouds,282.15,280.55,282.15,282.15,1016,93,10000,90,2.85
Camopi,3.1655,-52.3158,Clouds,overcast clouds,295.12,295.96,295.12,295.12,1010,99,10000,100,0.58
Sol'-Iletsk,51.1631,54.9918,Rain,light rain,281.7,279.08,281.7,281.7,1008,86,10000,100,4.63
Rome,43.2128,-75.4557,Clear,clear sky,273.07,270.53,272.04,274.15,1020,55,10000,1,2.06
Katsuura,35.1333,140.3,Clouds,broken clouds,292.22,291.46,290.15,293.15,1022,49,10000,75,8.23
Bahía Blanca,-38.7196,-62.2724,Clear,clear sky,286.31,285.56,286.31,286.31,1018,72,10000,0,4.14
Iberia,29.9502,-91.7507,Clear,clear sky,294.15,294.47,294.15,294.15,1016,83,10000,1,4.12
Yuzhno-Kurilsk,44.0306,145.8556,Clouds,few clouds,276.95,272.66,276.95,276.95,1017,62,10000,18,5.68
Bethel,41.3712,-73.414,Clear,clear sky,279.46,278.63,278.71,280.15,1019,39,10000,1,1.47
Eyl,7.9803,49.8164,Rain,moderate rain,301.72,304.8,301.72,301.72,1012,69,10000,83,0.97
Kodinsk,58.6881,99.1844,Clear,clear sky,277.49,275.72,277.49,277.49,1025,54,10000,8,2.03
Cairns,-16.9167,145.7667,Clouds,broken clouds,299.98,301.65,299.82,300.15,1015,69,10000,75,9.26
Juneau,58.3019,-134.4197,Clouds,broken clouds,279.98,278.16,277.59,285.15,1006,35,10000,75,2.57
Maltahöhe,-24.8333,16.9833,Clouds,broken clouds,288.05,286.82,288.05,288.05,1015,47,10000,57,2.73
Saint-Augustin,51.226,-58.6502,Clouds,overcast clouds,275.2,267.95,275.2,275.2,1011,93,6699,100,13.34
Bogovarovo,58.9785,47.0246,Clouds,overcast clouds,276.19,273.04,276.19,276.19,1009,82,10000,92,3.35
Alice Springs,-23.7,133.8833,Clear,clear sky,297.69,296.7,296.48,299.15,1021,19,10000,0,5.14
Hervey Bay,-25.2986,152.8535,Clouds,broken clouds,295.93,295.96,295.93,295.93,1018,65,10000,51,1.79
Port Alfred,-33.5906,26.891,Clouds,overcast clouds,292.67,293.0,292.67,292.67,1009,89,10000,88,8.62
Yanam,16.7333,82.2167,Clouds,scattered clouds,304.15,309.58,304.15,304.15,1010,66,6000,40,5.14
Ribeira Grande,38.5167,-28.7,Clouds,overcast clouds,288.97,288.85,288.97,288.97,1018,86,10000,100,1.63
Touros,-5.1989,-35.4608,Clouds,few clouds,296.15,296.96,296.15,296.15,1011,94,10000,20,1.54
Cherskiy,68.75,161.3,Clouds,scattered clouds,269.72,266.32,269.72,269.72,1012,76,10000,41,2.29
Abhā,18.2164,42.5053,Clouds,scattered clouds,288.62,288.1,288.15,289.15,1023,72,10000,40,2.63
Knysna,-34.0363,23.0471,Clear,clear sky,285.15,284.68,285.15,285.15,1010,87,10000,0,2.06
Waingapu,-9.6567,120.2641,Clouds,scattered clouds,302.24,303.05,302.24,302.24,1011,51,10000,25,4.33
Carnarvon,-24.8667,113.6333,Clear,clear sky,301.15,300.75,301.15,301.15,1017,39,10000,0,3.09
Cayenne,4.9333,-52.3333,Rain,moderate rain,297.41,298.5,297.15,297.59,1011,100,4300,75,3.09
Skeldon,5.8833,-57.1333,Clouds,overcast clouds,297.28,298.15,297.28,297.28,1010,92,10000,100,2.33
Saint George,37.1041,-113.5841,Clouds,scattered clouds,285.11,283.98,284.26,285.93,1007,62,10000,40,4.12
Los Llanos de Aridane,28.6585,-17.9182,Clouds,few clouds,289.04,288.46,287.04,292.15,1012,68,10000,20,0.51
Karratha,-20.7377,116.8463,Clear,clear sky,306.15,303.87,306.15,306.15,1015,16,10000,0,5.92
Chipinge,-20.1883,32.6236,Clouds,few clouds,290.74,290.17,290.74,290.74,1016,62,10000,12,1.15
Cabo San Lucas,22.8909,-109.9124,Clouds,overcast clouds,295.37,294.64,293.71,297.15,1012,38,10000,90,7.58
Ikongo,-21.8833,47.4333,Clouds,broken clouds,294.84,295.49,294.84,294.84,1018,93,10000,83,0.48
Casper,42.8666,-106.3131,Clouds,overcast clouds,279.02,275.51,278.15,279.82,1007,75,10000,90,5.14
Hay River,60.8156,-115.7999,Clouds,overcast clouds,257.66,252.54,257.15,258.15,1021,72,10000,92,2.06
Orange Cove,36.6244,-119.3137,Clear,clear sky,283.01,281.17,274.82,287.59,1011,44,10000,1,3.6
Mpika,-11.8343,31.4529,Clouds,broken clouds,289.8,289.95,289.8,289.8,1015,93,10000,73,2.97
Ulladulla,-35.35,150.4667,Clouds,scattered clouds,292.9,292.39,291.48,294.15,1024,56,10000,40,4.63
Vila,42.0304,-8.1588,Clouds,broken clouds,280.93,280.46,280.93,280.93,1006,93,10000,58,1.34
Temerloh,3.4483,102.4176,Clouds,broken clouds,304.69,309.17,304.69,304.69,1010,60,10000,78,1.16
Numāligarh,26.6333,93.75,Clouds,scattered clouds,311.57,309.52,311.57,311.57,1008,16,10000,26,2.05
Faanui,-16.4833,-151.75,Clouds,scattered clouds,300.59,302.77,300.59,300.59,1015,70,10000,47,3.57
Gautier,30.3858,-88.6117,Clear,clear sky,289.2,289.32,286.15,293.15,1018,94,1207,1,3.21
Mlalo,-4.9333,38.9333,Clouds,overcast clouds,298.88,299.49,298.88,298.88,1013,76,10000,98,3.08
Mayo,38.8876,-76.5119,Clear,clear sky,282.29,281.15,281.48,283.15,1017,97,10000,4,2.24
Grindavik,63.8424,-22.4338,Clouds,broken clouds,279.15,277.18,279.15,279.15,1031,93,10000,75,2.57
Panlaitan,12.1191,119.8486,Clouds,overcast clouds,302.11,304.91,302.11,302.11,1011,65,10000,99,3.36
Galesburg,40.9478,-90.3712,Clear,clear sky,292.35,291.76,291.15,293.15,1006,55,10000,1,4.12
Krasnosel'kup,65.7,82.4667,Clouds,broken clouds,274.69,268.84,274.69,274.69,1009,100,1759,57,7.97
Maraã,-1.8333,-65.3667,Clouds,overcast clouds,295.72,296.62,295.72,295.72,1010,99,10000,100,0.95
Halifax,44.6453,-63.5724,Clouds,overcast clouds,278.15,274.67,277.59,278.71,1003,81,8927,100,4.63
Mount Isa,-20.7333,139.5,Clouds,broken clouds,304.15,302.79,304.15,304.15,1016,29,10000,75,3.6
Kailua,21.4022,-157.7394,Clouds,broken clouds,297.27,297.54,295.93,299.15,1015,69,10000,75,1.54
Havre-St-Pierre,50.2334,-63.5986,Mist,mist,279.15,274.55,279.15,279.15,1000,93,4828,90,8.23
Torrington,41.8007,-73.1212,Clouds,scattered clouds,277.15,274.56,276.48,278.15,1017,56,10000,35,2.87
Isla Vista,34.4133,-119.861,Clear,clear sky,283.49,282.09,281.15,286.15,1011,58,10000,1,2.06
Bo Rai,12.5728,102.5371,Clouds,few clouds,304.22,312.2,303.71,304.82,1011,74,10000,20,1.03
Zhangaözen,43.3,52.8,Clouds,scattered clouds,291.32,290.45,291.32,291.32,1011,48,10000,47,6.07
Coronel Vivida,-25.9797,-52.5678,Clear,clear sky,282.1,281.36,282.1,282.1,1017,73,10000,0,1.74
Butaritari,3.0707,172.7902,Rain,light rain,301.3,305.15,301.3,301.3,1010,77,10000,40,5.91
Camacha,33.0833,-16.3333,Clouds,scattered clouds,289.15,288.95,289.15,289.15,1012,82,10000,40,4.12
Petropavlovsk-Kamchatskiy,53.0452,158.6483,Snow,light snow,275.15,273.02,275.15,275.15,1008,100,9000,90,2.0
Vao,-22.6667,167.4833,Clear,clear sky,295.88,295.93,295.88,295.88,1013,66,10000,6,9.09
Tsiroanomandidy,-18.7667,46.0333,Clouds,overcast clouds,293.42,293.7,293.42,293.42,1016,84,10000,92,2.37
Portland,45.5234,-122.6762,Clouds,broken clouds,282.91,282.91,281.48,284.26,1015,74,10000,83,0.83
Acapulco de Juárez,16.8634,-99.8901,Clouds,overcast clouds,299.61,299.61,299.61,299.61,1013,66,10000,93,1.85
Mazatlán,23.2167,-106.4167,Clouds,overcast clouds,297.03,297.51,296.15,297.59,1013,78,10000,90,1.54
Honningsvåg,70.9821,25.9704,Snow,light snow,273.15,269.16,273.15,273.15,1016,74,10000,75,3.6
Sayhāt,26.4852,50.0405,Clouds,overcast clouds,301.64,304.64,300.15,303.15,1007,69,6000,95,4.12
Port Elizabeth,-33.918,25.5701,Clouds,few clouds,291.15,290.78,291.15,291.15,1009,68,10000,20,4.12
Vostok,46.4856,135.8833,Clouds,overcast clouds,290.12,288.47,290.12,290.12,1010,23,10000,100,2.93
Vila Velha,-20.3297,-40.2925,Clouds,scattered clouds,297.15,298.06,297.15,297.15,1013,94,10000,40,2.5
Ganta,7.3022,-8.5308,Clouds,overcast clouds,294.53,295.31,294.53,294.53,1010,99,10000,86,0.84
Ferrol,43.4832,-8.2369,Clouds,scattered clouds,285.93,285.56,284.82,286.48,1004,88,10000,48,0.45
Souillac,-20.5167,57.5167,Clouds,broken clouds,298.15,299.0,298.15,298.15,1016,88,5000,75,4.63
Mayumba,-3.432,10.6554,Clouds,overcast clouds,298.47,299.38,298.47,298.47,1009,89,10000,100,2.28
Kirakira,-10.4544,161.9205,Rain,light rain,302.1,306.14,302.1,302.1,1009,72,10000,53,0.42
Lata,40.1629,-8.3327,Clouds,broken clouds,286.75,286.67,285.37,288.15,1004,96,10000,79,0.5
Abu Dhabi,24.4667,54.3667,Clear,clear sky,305.15,303.13,305.15,305.15,1008,20,10000,0,2.57
Hambantota,6.1241,81.1185,Clouds,scattered clouds,304.15,312.0,304.15,304.15,1011,74,10000,40,3.09
Arrondissement de Montargis,47.8333,2.75,Clouds,few clouds,275.43,272.32,273.15,278.15,1003,69,10000,14,3.08
Drayton Valley,53.2168,-114.9854,Clouds,overcast clouds,278.71,277.03,278.71,278.71,982,51,10000,96,2.14
Turaif,31.6725,38.6637,Clear,clear sky,285.15,284.68,285.15,285.15,1013,87,10000,0,3.6
Beringovskiy,63.05,179.3167,Clouds,broken clouds,274.03,274.03,274.03,274.03,1013,94,10000,70,1.15
Colesberg,-30.72,25.0972,Clouds,broken clouds,286.22,284.71,286.22,286.22,1014,43,10000,64,2.88
Sinegor'ye,62.0788,150.477,Clouds,scattered clouds,270.15,270.15,270.15,270.15,1013,72,10000,31,1.02
San Juan,-31.5375,-68.5364,Clear,clear sky,290.7,289.89,290.7,290.7,1015,53,10000,0,0.45
La Ronge,55.1001,-105.2842,Clouds,broken clouds,271.15,266.32,271.15,271.15,1008,50,10000,79,4.12
Caravelas,-17.7125,-39.2481,Clouds,broken clouds,296.25,296.81,296.25,296.25,1012,84,10000,68,2.68
São João da Barra,-21.6403,-41.0511,Clouds,scattered clouds,295.62,296.32,295.62,295.62,1013,92,10000,46,3.49
Marsá Maţrūḩ,31.3525,27.2453,Clear,clear sky,285.15,284.68,285.15,285.15,1015,87,10000,0,2.06
Vardø,70.3705,31.1107,Clouds,scattered clouds,273.15,268.45,273.15,273.15,1014,64,10000,40,4.63
Songyuan,45.1171,124.8568,Clouds,overcast clouds,293.21,291.69,293.21,293.21,1003,16,10000,100,8.28
Laguna,38.421,-121.4238,Clear,clear sky,285.52,284.12,284.82,286.48,1012,50,10000,1,4.63
Farafangana,-22.8167,47.8333,Clouds,broken clouds,295.96,296.62,295.96,295.96,1017,89,10000,51,1.45
Muli,2.9167,73.5667,Clouds,broken clouds,301.5,304.82,301.5,301.5,1012,72,10000,60,2.07
Bilibino,68.0546,166.4372,Clouds,overcast clouds,270.15,270.15,270.15,270.15,1012,72,10000,99,1.26
Libreville,0.3925,9.4537,Rain,moderate rain,298.15,299.16,298.15,298.15,1009,94,3000,75,2.57
Suzun,53.7841,82.3116,Clouds,overcast clouds,286.89,285.7,286.89,286.89,1020,53,10000,100,4.34
Vilyuysk,63.7553,121.6247,Clouds,overcast clouds,268.13,261.74,268.13,268.13,1017,76,9375,100,5.32
Princeton,25.5384,-80.4089,Clouds,scattered clouds,296.87,297.1,296.15,297.15,1017,69,10000,40,6.17
Umm Kaddadah,13.6017,26.6876,Clouds,few clouds,297.91,296.73,297.91,297.91,1010,11,10000,22,3.14
Acajutla,13.5928,-89.8275,Clouds,scattered clouds,296.48,297.48,296.48,296.48,1014,100,10000,30,0.45
Khovu-Aksy,51.1333,93.6,Clouds,overcast clouds,281.14,279.45,281.14,281.14,1022,32,10000,88,2.69
Benidorm,38.5382,-0.131,Clouds,broken clouds,286.84,286.69,285.93,288.71,1007,93,10000,84,2.12
Las Vegas,36.175,-115.1372,Clouds,few clouds,288.73,287.23,285.93,290.15,1004,34,10000,20,7.2
Otane,-39.8833,176.6333,Clouds,overcast clouds,284.41,283.71,282.59,285.93,1010,81,10000,88,1.34
Torbay,47.6666,-52.7314,Rain,moderate rain,278.1,271.67,277.04,279.82,1014,100,604,90,14.4
Tanout,14.9709,8.8879,Clear,clear sky,300.05,298.98,300.05,300.05,1008,12,10000,1,4.21
Antalaha,-14.9003,50.2788,Rain,light rain,298.1,298.82,298.1,298.1,1015,83,10000,77,2.17
Thompson,55.7435,-97.8558,Clouds,overcast clouds,277.15,272.92,277.15,277.15,999,75,10000,90,5.66
North Bend,43.4065,-124.2243,Clear,clear sky,281.0,280.28,279.82,282.15,1018,93,10000,1,1.56
Karaton,-6.3424,106.1045,Clouds,few clouds,306.03,310.69,305.93,306.15,1010,55,10000,20,5.66
Rach Gia,10.0167,105.0833,Clouds,broken clouds,305.15,313.56,305.15,305.15,1011,70,10000,75,1.54
Palmer,42.1584,-72.3287,Clear,clear sky,276.1,272.12,273.15,279.15,1017,45,10000,1,4.63
Santa Pola,38.1917,-0.5658,Clouds,broken clouds,287.8,287.78,287.04,289.15,1005,94,5000,75,3.09
Husavik,66.0449,-17.3389,Clear,clear sky,269.15,266.76,269.15,269.15,1031,93,10000,0,1.54
Half Moon Bay,37.4636,-122.4286,Clouds,scattered clouds,282.88,279.54,281.48,284.15,1015,81,10000,40,7.72
Provideniya,64.3833,-173.3,Clear,clear sky,277.15,277.15,277.15,277.15,1013,65,10000,0,1.0
Henties Bay,-22.116,14.2845,Clear,clear sky,289.26,289.33,289.26,289.26,1013,92,10000,3,0.89
Lüderitz,-26.6481,15.1594,Clouds,broken clouds,288.27,287.9,288.27,288.27,1014,79,10000,52,3.78
Sola,-13.8833,167.55,Clouds,overcast clouds,300.7,303.31,300.7,300.7,1007,73,10000,92,6.16
Riyadh,24.6877,46.7219,Clear,clear sky,300.04,299.11,298.15,301.15,1011,18,10000,0,4.98
San Quintín,30.4833,-115.95,Clouds,overcast clouds,286.55,286.06,286.55,286.55,1014,81,10000,90,4.05
Witu,-2.3889,40.4382,Rain,light rain,301.26,304.9,301.26,301.26,1012,76,10000,93,3.92
San Vicente,-26.6167,-54.1333,Clear,clear sky,281.6,281.19,281.6,281.6,1018,91,10000,0,1.36
Pundaguitan,6.3711,126.1689,Clouds,broken clouds,301.18,304.15,301.18,301.18,1011,72,10000,51,4.57
Nizhneudinsk,54.9076,99.0276,Clouds,overcast clouds,276.19,276.19,276.19,276.19,1025,97,30,100,0.56
Te Anau,-45.4167,167.7167,Clouds,broken clouds,279.32,279.32,279.32,279.32,1015,76,10000,66,0.86
Arrondissement de Mont-de-Marsan,44.0,-0.6667,Drizzle,drizzle,284.38,284.17,284.15,284.82,1005,100,3400,90,1.54
Chui,-33.6971,-53.4616,Clear,clear sky,284.32,283.71,284.32,284.32,1018,85,10000,0,3.29
Luwuk,-0.9516,122.7875,Clouds,scattered clouds,302.69,306.88,302.69,302.69,1011,69,10000,36,1.71
Talnakh,69.4865,88.3972,Clouds,scattered clouds,267.89,261.55,267.89,267.89,1016,76,10000,49,5.16
Gornyye Klyuchi,45.25,133.5,Clouds,overcast clouds,292.95,291.9,292.95,292.95,1010,35,10000,98,4.22
Bowen,-20.0167,148.2333,Clouds,scattered clouds,299.15,299.15,299.15,299.15,1017,57,10000,40,7.72
Ahar,38.4774,47.0699,Clouds,overcast clouds,292.54,291.61,292.54,292.54,1012,41,10000,98,2.34
Rio Grande,-32.035,-52.0986,Clear,clear sky,284.82,284.58,284.82,284.82,1016,97,10000,2,5.03
Saint-Leu,-21.15,55.2833,Mist,mist,296.58,297.28,296.15,297.15,1016,88,3600,75,8.75
Flagstaff,35.1981,-111.6513,Clouds,broken clouds,278.37,274.7,277.59,279.82,1010,52,10000,75,5.14
Inzhavino,52.3185,42.4937,Clouds,overcast clouds,277.94,274.04,277.94,277.94,1009,91,10000,100,5.4
Khairpur,27.5295,68.7617,Haze,haze,310.15,309.14,310.15,310.15,1006,23,4000,1,5.56
Kampene,-3.6,26.6667,Clouds,overcast clouds,293.95,294.59,293.95,293.95,1011,96,10000,99,0.99
Akranes,64.3218,-22.0749,Clouds,broken clouds,277.03,275.15,275.93,278.15,1032,87,10000,75,2.06
Menongue,-14.6585,17.691,Clouds,broken clouds,289.19,288.57,289.19,289.19,1014,66,10000,52,0.12
Storm Lake,42.6411,-95.2097,Clear,clear sky,286.95,286.14,286.48,287.15,1001,67,10000,1,8.23
Keti Bandar,24.1447,67.4497,Clear,clear sky,303.45,305.36,303.45,303.45,1009,54,10000,0,4.97
Darhan,49.4867,105.9228,Clouds,overcast clouds,280.98,276.96,280.98,280.98,1018,40,8749,91,8.15
Ipaussu,-23.0553,-49.6284,Clouds,scattered clouds,289.55,289.62,289.55,289.55,1014,91,10000,26,1.54
Nisibis,37.0778,41.2178,Clear,clear sky,286.15,285.36,286.15,286.15,1007,71,10000,0,1.03
Bathsheba,13.2167,-59.5167,Clouds,scattered clouds,299.15,299.15,299.15,299.15,1013,65,10000,40,6.69
Novobessergenevka,47.1847,38.8462,Clear,clear sky,276.48,272.01,276.48,276.48,1018,81,10000,0,5.81
Kisoro,-1.2854,29.685,Clouds,overcast clouds,288.03,287.92,288.03,288.03,1016,90,10000,100,0.97
Walla Walla,46.0646,-118.343,Clear,clear sky,283.18,281.54,281.48,284.82,1011,50,10000,1,2.57
Sur,22.5667,59.5289,Clouds,scattered clouds,306.74,306.23,306.74,306.74,1010,32,10000,29,0.28
Wilhelmshaven,53.5167,8.1333,Clouds,broken clouds,274.35,271.02,273.71,275.15,1015,64,10000,75,3.09
Leningradskiy,69.3833,178.4167,Clouds,overcast clouds,273.4,271.47,273.4,273.4,1010,88,10000,97,1.64
Shelburne,44.0787,-80.2041,Clouds,overcast clouds,276.7,273.32,276.48,277.04,1019,74,10000,100,3.85
Nouakchott,18.0858,-15.9785,Clouds,broken clouds,292.15,292.12,292.15,292.15,1009,77,8000,70,4.63
Bayanday,53.0661,105.5139,Clouds,broken clouds,277.08,271.99,277.08,277.08,1019,36,10000,73,7.84
Brawley,32.9787,-115.5303,Clear,clear sky,289.7,288.56,289.15,290.15,1008,44,10000,1,10.29
Saint Simons,31.1352,-81.3901,Clear,clear sky,289.53,289.68,285.93,292.15,1021,94,10000,1,3.09
Nome,64.5011,-165.4064,Clear,clear sky,282.15,280.74,282.15,282.15,1009,46,10000,1,2.57
Ardakān,32.31,54.0175,Clear,clear sky,296.15,295.32,296.15,296.15,1018,31,10000,0,1.03
Ilulissat,69.2167,-51.1,Clouds,scattered clouds,275.15,271.59,275.15,275.15,1026,75,10000,40,3.6
Murmino,54.6036,40.0544,Rain,light rain,278.15,274.35,278.15,278.15,990,72,10000,100,5.29
Tasiilaq,65.6145,-37.6368,Clouds,broken clouds,275.15,272.41,275.15,275.15,1029,75,10000,75,2.59
Lawrenceville,33.9562,-83.988,Clear,clear sky,288.09,288.09,285.93,289.82,1021,94,10000,1,2.17
Vila Franca do Campo,37.7167,-25.4333,Clouds,broken clouds,288.15,287.85,288.15,288.15,1018,82,10000,75,2.57
Tazovsky,67.4667,78.7,Clouds,broken clouds,273.34,267.52,273.34,273.34,1006,97,10000,72,6.9
Sakakah,29.9697,40.2064,Clear,clear sky,290.15,289.16,290.15,290.15,1015,48,10000,0,6.17
Yatou,37.15,122.3833,Clouds,overcast clouds,288.0,287.68,288.0,288.0,1014,82,10000,99,7.78
Rūdbār,30.15,62.6,Clouds,broken clouds,305.42,303.14,305.42,305.42,1010,12,10000,71,0.42
Davila,18.4726,120.5763,Clouds,broken clouds,304.15,308.5,304.15,304.15,1012,62,10000,75,4.12
Kaeo,-35.1,173.7833,Clouds,broken clouds,290.93,290.88,290.93,290.93,1011,81,10000,52,0.89
Jewar,28.1333,77.55,Dust,dust,307.15,305.11,307.15,307.15,1009,20,1200,0,2.62
Kozel'sk,54.0375,35.7716,Rain,light rain,276.15,272.55,276.15,276.15,1008,70,10000,0,4.0
Denpasar,-8.65,115.2167,Clouds,few clouds,303.15,308.19,303.15,303.15,1011,70,10000,20,6.69
Ingham,42.6,-84.3833,Clouds,overcast clouds,281.43,278.75,280.93,282.15,1013,53,10000,90,4.63
Zavyalovo,54.5053,82.4484,Smoke,smoke,285.67,284.39,284.26,286.15,1019,54,5000,75,3.0
Pontes e Lacerda,-15.2261,-59.3353,Clear,clear sky,291.54,291.81,291.54,291.54,1014,91,10000,0,1.35
Pisco,-13.7,-76.2167,Clear,clear sky,291.61,291.65,290.93,292.15,1014,82,8000,3,2.57
Ryōtsu-minato,38.0833,138.4333,Clear,clear sky,287.15,285.83,287.15,287.15,1021,47,10000,0,4.63
Alta Floresta,-9.8756,-56.0861,Clouds,overcast clouds,294.18,294.9,294.18,294.18,1011,98,10000,86,0.9
Marawi,7.9986,124.2928,Clouds,overcast clouds,302.04,306.97,302.04,302.04,1011,77,5105,91,3.13
Salalah,17.0151,54.0924,Clouds,few clouds,302.15,305.88,302.15,302.15,1011,70,10000,20,1.03
Guerrero Negro,27.9769,-114.0611,Clouds,overcast clouds,288.64,288.28,288.64,288.64,1014,78,10000,100,6.35
Vijayapuri,11.2333,77.5,Haze,haze,302.15,306.64,302.15,302.15,1014,74,5000,40,0.38
Okhotsk,59.3833,143.3,Clouds,overcast clouds,271.71,268.8,271.71,271.71,1016,81,10000,94,2.17
Metro,-5.1131,105.3067,Clouds,scattered clouds,305.42,308.27,305.42,305.42,1010,51,10000,37,3.38
Ostrovnoy,68.0531,39.5131,Clouds,overcast clouds,272.32,267.33,272.32,272.32,1012,69,10000,100,4.77
Águilas,37.4063,-1.5829,Clouds,broken clouds,285.22,284.73,281.48,288.71,1007,86,10000,64,0.45
Wahiawā,21.5028,-158.0236,Clouds,overcast clouds,296.63,296.81,295.93,298.15,1017,68,10000,90,1.26
Mossamedes,-15.1961,12.1522,Clouds,few clouds,296.6,296.88,296.6,296.6,1009,72,10000,12,3.08
Aksu,41.1231,80.2644,Clear,clear sky,294.03,292.59,294.03,294.03,1024,16,10000,3,2.37
Coyhaique,-45.5752,-72.0662,Clouds,broken clouds,286.15,285.49,286.15,286.15,1007,76,10000,75,1.54
Trelew,-43.249,-65.3051,Clouds,scattered clouds,288.81,287.58,288.81,288.81,1011,44,10000,49,1.93
Baeza,37.9938,-3.471,Clouds,broken clouds,281.37,281.37,281.37,281.37,1007,93,10000,57,0.38
Pasni,25.2631,63.471,Clear,clear sky,301.72,304.04,301.72,301.72,1009,64,10000,5,1.83
Tupelo,34.2576,-88.7034,Clear,clear sky,292.13,291.65,290.93,293.15,1016,60,10000,1,3.6
Castro,-24.7911,-50.0119,Clear,clear sky,285.44,285.21,285.44,285.44,1015,95,10000,2,0.93
Esna,25.2934,32.554,Clear,clear sky,293.15,292.48,293.15,293.15,1012,49,10000,0,1.54
Sfântu Gheorghe,45.8667,25.7833,Clouds,overcast clouds,278.39,278.39,278.15,278.71,976,83,3743,100,0.63
Örnsköldsvik,63.2909,18.7153,Clouds,overcast clouds,273.15,270.06,273.15,273.15,1014,74,10000,90,2.57
Iralaya,15.0,-83.2333,Clouds,broken clouds,299.03,299.71,299.03,299.03,1014,78,10000,56,3.93
Ouro Preto do Oeste,-10.7481,-62.2158,Clouds,few clouds,293.96,294.66,293.96,293.96,1012,98,10000,19,1.86
Arraial do Cabo,-22.9661,-42.0278,Clouds,overcast clouds,296.65,297.09,296.65,296.65,1013,78,10000,98,0.34
Marabu,4.4148,114.0089,Clouds,scattered clouds,303.15,308.19,303.15,303.15,1011,70,10000,40,2.57
Rodrigues Alves,-7.738,-72.6509,Rain,light rain,295.09,295.82,295.09,295.09,1012,95,10000,82,1.72
San Cristobal,7.7669,-72.225,Clouds,overcast clouds,294.71,294.98,294.71,294.71,1013,79,10000,100,0.31
Kang,-23.6752,22.7876,Clear,clear sky,289.59,288.18,289.59,289.59,1015,34,10000,0,3.15
Byron Bay,-28.65,153.6167,Clouds,broken clouds,295.25,295.19,294.82,296.15,1023,64,10000,75,6.17
Santa Maria,-29.6842,-53.8069,Clear,clear sky,283.86,283.15,283.86,283.86,1019,83,10000,0,0.23
Haines Junction,60.7522,-137.5108,Clouds,scattered clouds,281.15,279.2,281.15,281.15,1003,31,10000,39,3.09
Abu Kamal,34.4506,40.9171,Clear,clear sky,294.05,293.34,294.05,294.05,1009,44,10000,4,7.83
Saldanha,-33.0117,17.9442,Clear,clear sky,290.15,290.2,290.15,290.15,1012,88,10000,8,1.03
Dabakala,8.3667,-4.4333,Rain,light rain,295.64,296.37,295.64,295.64,1010,93,10000,89,1.36
Port Lincoln,-34.7333,135.8667,Clear,clear sky,293.83,293.36,293.83,293.83,1024,54,10000,0,2.16
Morondava,-20.2833,44.2833,Clouds,overcast clouds,299.87,301.68,299.87,299.87,1013,72,10000,94,3.22
Guánica,17.9716,-66.908,Rain,light rain,294.75,295.37,293.71,295.37,1013,92,10000,25,2.64
Longyearbyen,78.2186,15.6401,Clouds,few clouds,264.15,260.11,264.15,264.15,1021,67,10000,20,2.06
Traverse City,44.7631,-85.6206,Clouds,broken clouds,278.57,275.76,278.15,279.15,1009,61,10000,75,3.6
Rovaniemi,66.5,25.7167,Clouds,broken clouds,272.15,268.37,272.15,272.15,1013,86,10000,75,3.09
Passo de Camaragibe,-9.2368,-35.4901,Clouds,scattered clouds,296.15,297.12,296.15,296.15,1012,100,10000,40,0.51
Itarema,-2.9248,-39.9167,Clouds,broken clouds,297.55,298.32,297.55,297.55,1009,87,10000,66,3.69
Ust-Nera,64.5667,143.2,Snow,light snow,272.68,269.75,272.68,272.68,1010,89,841,100,2.33
Rønne,55.1009,14.7066,Clear,clear sky,276.15,274.12,276.15,276.15,1017,75,10000,7,2.06
Nanortalik,60.1432,-45.2371,Clouds,broken clouds,273.57,268.72,273.57,273.57,1028,93,10000,63,5.06
Tynset,62.2759,10.7824,Clouds,broken clouds,271.15,269.05,271.15,271.15,1017,80,10000,75,1.54
Puerto Rondón,6.2805,-71.1,Clouds,overcast clouds,300.66,301.99,300.66,300.66,1008,61,10000,100,1.69
Durban,-29.8579,31.0292,Clear,clear sky,289.3,289.43,287.04,292.04,1009,94,10000,0,1.03
Camacupa,-12.0167,17.4833,Clouds,few clouds,287.9,287.44,287.9,287.9,1014,77,10000,23,0.17
Gizo Government Station,-8.103,156.8419,Rain,light rain,302.22,306.61,302.22,302.22,1009,73,10000,95,3.72
San Javier,37.8063,-0.8374,Clouds,broken clouds,288.15,287.9,288.15,288.15,1004,84,10000,64,0.89
Miranda de Ebro,42.6865,-2.947,Rain,moderate rain,283.34,283.03,283.15,283.71,1006,100,5000,75,1.54
Rockwall,32.9001,-96.4003,Clear,clear sky,294.32,294.16,293.71,294.82,1010,64,10000,1,5.14
Voyvozh,62.892,54.9635,Clouds,scattered clouds,277.3,274.41,277.3,277.3,1002,68,10000,46,3.31
Ribas do Rio Pardo,-20.4431,-53.7592,Clear,clear sky,290.15,289.81,290.15,290.15,1014,73,10000,1,2.37
Omboué,-1.5746,9.2618,Rain,light rain,298.14,299.07,298.14,298.14,1009,91,10000,99,1.92
Vestmanna,62.1564,-7.1664,Clouds,broken clouds,276.15,270.16,276.15,276.15,1023,87,10000,75,9.77
Lompoc,34.6391,-120.4579,Clouds,few clouds,282.28,280.56,279.82,284.15,1014,76,10000,12,3.09
Rio Claro,-22.4114,-47.5614,Clouds,few clouds,292.59,292.78,292.59,292.59,1036,84,10000,16,1.27
Arlit,18.7369,7.3853,Clouds,scattered clouds,302.77,300.99,302.77,302.77,1007,11,10000,32,3.45
Shetpe,44.1667,52.1167,Clouds,broken clouds,289.19,288.42,289.19,289.19,1011,60,10000,62,9.07
Constitución,-35.3333,-72.4167,Clear,clear sky,286.84,285.88,286.84,286.84,1014,62,10000,0,3.02
Porterville,36.0652,-119.0168,Clear,clear sky,284.37,283.06,279.26,287.04,1011,58,10000,1,2.06
Maţāy,28.419,30.7792,Clear,clear sky,289.79,289.21,289.79,289.79,1015,65,10000,0,5.92
Newmarket,44.0501,-79.4663,Rain,light rain,276.12,272.94,275.93,276.48,1021,71,10000,99,3.37
Mulatupo,8.9492,-77.7652,Clouds,overcast clouds,299.1,299.1,299.1,299.1,1011,86,10000,99,4.76
Zhigansk,66.7697,123.3711,Snow,light snow,267.18,259.79,267.18,267.18,1014,86,728,100,6.57
Barrow,71.2906,-156.7887,Clouds,broken clouds,266.15,258.41,266.15,266.15,1013,79,10000,75,6.69
Borogontsy,62.6683,131.1683,Clouds,overcast clouds,272.53,268.5,272.53,272.53,1010,84,10000,100,3.48
Fukuechō,32.6881,128.8419,Rain,light rain,292.15,292.25,292.15,292.15,1019,82,10000,75,7.72
Ouégoa,-20.35,164.4333,Clouds,broken clouds,297.17,297.43,297.17,297.17,1012,69,10000,51,3.35
San Jose,37.3394,-121.895,Clouds,broken clouds,282.58,279.45,280.93,284.15,1014,58,10000,75,6.69
Quesnel,52.9999,-122.5029,Clear,clear sky,286.15,284.08,286.15,286.15,1005,22,10000,1,3.09
Tumbagaan,5.3656,120.3139,Clouds,few clouds,301.97,305.14,301.97,301.97,1010,68,10000,23,0.26
Camargo,27.6667,-105.1667,Clouds,overcast clouds,298.17,297.01,298.17,298.17,1009,11,10000,100,5.32
Atasū,48.6814,71.6433,Clouds,overcast clouds,293.41,291.94,293.41,293.41,1020,17,10000,94,6.41
Pangai,-19.8,-174.35,Rain,moderate rain,298.15,299.0,298.15,298.15,1008,88,10000,90,3.09
Buraidah,26.326,43.975,Clear,clear sky,298.15,298.01,298.15,298.15,1010,50,10000,0,1.03
Province of Mantua,45.1667,10.7833,Rain,light rain,283.71,283.25,283.71,283.71,1009,93,10000,100,0.89
Bonthe,7.5264,-12.505,Clouds,broken clouds,299.14,299.14,299.14,299.14,1009,85,10000,64,2.37
Kamenka,51.3223,42.7678,Clouds,overcast clouds,279.82,275.81,279.82,279.82,1008,87,10000,100,7.0
Kasongo-Lunda,-6.4667,16.8167,Rain,light rain,294.08,294.74,294.08,294.08,1011,96,10000,100,0.46
Kabalo,-6.05,26.9167,Clouds,overcast clouds,294.62,295.3,294.62,294.62,1011,95,10000,97,1.09
Sørland,67.667,12.6934,Clouds,scattered clouds,274.15,271.79,274.15,274.15,1021,75,10000,40,2.06
Dogondoutchi,13.6393,4.0287,Clouds,overcast clouds,302.42,301.08,302.42,302.42,1006,27,10000,89,2.27
Sauda,59.6506,6.3542,Clouds,broken clouds,277.81,276.06,277.59,278.15,1018,70,10000,75,2.06
Goderich,43.7501,-81.7165,Clouds,overcast clouds,280.15,276.34,280.15,280.15,1018,49,10000,100,6.69
Tāndā,26.55,82.65,Clear,clear sky,312.84,309.06,312.84,312.84,1007,3,10000,0,3.05
Jalingo,8.8833,11.3667,Clouds,broken clouds,298.27,298.56,298.27,298.27,1008,66,10000,68,0.98
Bima,-8.4667,118.7167,Clouds,scattered clouds,304.43,306.45,304.43,304.43,1011,51,10000,43,1.7
Belmonte,-15.8631,-38.8828,Clouds,scattered clouds,296.15,296.67,296.15,296.15,1013,83,10000,40,1.54
Pimenta Bueno,-11.6725,-61.1936,Clouds,few clouds,293.91,294.57,293.91,293.91,1012,97,10000,20,1.57
Kulhudhuffushi,6.6221,73.07,Clouds,scattered clouds,302.23,306.05,302.23,302.23,1011,70,10000,30,2.72
Yar-Sale,66.8333,70.8333,Clouds,overcast clouds,273.64,268.34,273.64,273.64,998,99,126,100,5.97
Barra do Garças,-15.89,-52.2567,Clouds,scattered clouds,295.0,295.07,295.0,295.0,1012,70,10000,46,2.18
Lyubech,51.7026,30.6569,Clouds,scattered clouds,274.91,270.89,274.91,274.91,1015,70,10000,44,4.22
Shaki,41.0833,47.1667,Clouds,overcast clouds,289.22,288.42,286.15,290.15,1012,59,10000,90,8.75
Chinchani,19.8667,72.7,Clouds,scattered clouds,304.44,306.91,304.44,304.44,1011,53,10000,50,3.66
Dalvik,65.9702,-18.5286,Clear,clear sky,269.15,266.76,269.15,269.15,1031,93,10000,0,1.54
Breytovo,58.2993,37.8617,Clouds,overcast clouds,274.74,271.79,274.74,274.74,1007,85,10000,98,2.74
Eura,61.1333,22.1333,Clouds,overcast clouds,273.15,269.57,273.15,273.15,1014,74,10000,90,3.09
Ozuluama de Mascareñas,21.6667,-97.85,Clouds,broken clouds,296.31,297.03,296.31,296.31,1012,90,10000,66,1.72
Necochea,-38.5473,-58.7368,Clear,clear sky,284.47,283.88,284.47,284.47,1019,85,10000,0,3.47
Svetlaya,46.5389,138.3297,Clouds,broken clouds,281.83,279.49,281.83,281.83,1014,51,10000,72,4.09
Ouadda,8.0777,22.4007,Clouds,few clouds,294.92,295.01,294.92,294.92,1010,71,10000,21,1.88
El Dorado,38.7666,-120.5177,Clouds,broken clouds,278.71,276.26,277.59,280.15,1013,65,10000,75,3.09
Le Port,-20.9373,55.2919,Clouds,overcast clouds,296.6,297.04,296.15,297.15,1016,78,10000,90,5.66
Churapcha,62.0025,132.4325,Clouds,overcast clouds,275.13,273.54,275.13,275.13,1009,98,4030,100,1.58
Būlaevo,54.9056,70.4439,Clouds,overcast clouds,285.84,284.55,285.84,285.84,1015,53,10000,97,5.25
Smithers,54.7804,-127.1743,Clear,clear sky,285.15,282.98,285.15,285.15,1006,22,10000,1,3.09
Nhulunbuy,-12.2333,136.7667,Rain,light rain,302.15,306.64,302.15,302.15,1011,74,10000,75,5.14
Chelno-Vershiny,54.4333,51.1,Rain,light rain,281.22,279.49,281.22,281.22,1012,47,10000,100,2.78
Megion,61.0296,76.1136,Clear,clear sky,282.15,279.49,282.15,282.15,1009,49,10000,0,5.0
Egvekinot,66.3167,-179.1667,Clouds,overcast clouds,269.59,269.59,269.59,269.59,1013,94,10000,94,1.27
Bac Giang,21.2667,106.2,Clouds,scattered clouds,299.15,299.15,299.15,299.15,1015,69,10000,40,2.06
Arrondissement de Saint-Jean-de-Maurienne,45.1667,6.5833,Clouds,overcast clouds,279.82,278.43,277.59,280.93,1001,88,10000,100,2.04
Sinnamary,5.3833,-52.95,Rain,light rain,297.45,298.39,297.45,297.45,1010,94,4590,100,4.07
Matamoros,25.5333,-103.25,Clouds,overcast clouds,301.48,300.01,301.48,301.48,1003,13,10000,99,0.45
Camden,39.7835,-74.9663,Clouds,few clouds,279.56,278.64,278.71,280.37,1017,76,10000,12,1.55
Mathathane,-22.2687,28.7495,Clear,clear sky,291.34,290.26,291.34,291.34,1015,40,10000,0,1.18
Katobu,-4.9408,122.5276,Clouds,broken clouds,303.09,306.48,303.09,303.09,1010,63,10000,57,0.49
Ghanzi,-21.5667,21.7833,Clear,clear sky,289.49,288.04,289.49,289.49,1015,33,10000,9,3.03
Brigantine,39.4101,-74.3646,Clear,clear sky,280.2,278.14,277.59,283.71,1020,65,10000,1,2.97
Lavrentiya,65.5833,-171.0,Clear,clear sky,272.32,272.32,272.32,272.32,1013,90,10000,8,1.07
Susanville,40.4163,-120.653,Clouds,overcast clouds,276.28,273.77,272.59,279.15,1013,56,10000,90,2.57
Nchelenge,-9.3451,28.734,Rain,light rain,293.18,293.59,293.18,293.18,1013,90,10000,100,2.01
Puerto Ayacucho,5.6639,-67.6236,Clouds,overcast clouds,297.25,298.09,297.25,297.25,1008,91,10000,89,1.81
Hearst,49.6835,-83.6665,Rain,light rain,278.15,275.59,278.15,278.15,1017,38,10000,100,3.09
Bereda,43.2686,-7.5406,Clouds,overcast clouds,282.91,282.91,282.04,283.71,1007,100,10000,86,0.89
Olafsvik,64.8945,-23.7142,Clear,clear sky,278.8,276.32,278.8,278.8,1031,86,10000,0,3.17
Arman',59.7,150.1667,Clouds,scattered clouds,270.47,267.9,270.47,270.47,1016,72,10000,32,1.77
St. George's,12.0564,-61.7485,Clouds,few clouds,300.15,302.7,300.15,300.15,1012,78,10000,20,10.8
Morat,46.9283,7.1172,Clouds,overcast clouds,277.46,277.46,277.15,277.59,1006,81,10000,87,1.03
Verkhnevilyuysk,63.4453,120.3167,Clouds,overcast clouds,268.63,262.65,268.63,268.63,1018,68,10000,100,4.9
Tortolì,39.9256,9.6572,Clear,clear sky,288.15,288.16,288.15,288.15,1004,94,10000,0,3.09
Baruun-Urt,46.6806,113.2792,Clouds,broken clouds,279.49,274.22,279.49,279.49,1009,26,10000,63,11.21
Hanyang,32.1371,105.5126,Clouds,broken clouds,294.87,294.51,294.87,294.87,1016,54,10000,67,2.01
Kannod,22.6667,76.7333,Clear,clear sky,312.24,309.13,312.24,312.24,1009,9,10000,4,0.86
Santa Marta,11.2408,-74.199,Clouds,overcast clouds,300.93,303.77,300.93,300.93,1008,73,10000,95,11.62
Ubari,26.5921,12.7805,Clouds,scattered clouds,299.2,299.2,299.2,299.2,1011,22,10000,41,6.93
Les Cayes,18.2,-73.75,Clear,clear sky,296.42,297.02,296.42,296.42,1014,85,10000,0,1.85
Yagodnoye,62.55,149.6667,Clouds,broken clouds,270.97,268.69,270.97,270.97,1012,70,10000,60,1.63
Songkhla,6.8333,100.6667,Clouds,scattered clouds,305.15,312.15,305.15,305.15,1011,66,10000,40,1.03
Yulara,-25.2406,130.9889,Clear,clear sky,299.15,299.15,299.15,299.15,1021,19,10000,0,4.63
Salto,-31.3833,-57.9667,Clear,clear sky,284.26,284.01,284.26,284.26,1019,99,10000,2,2.6
Uíge,-7.6087,15.0613,Clouds,overcast clouds,292.26,292.71,292.26,292.26,1011,95,10000,99,1.28
Ayan,56.45,138.1667,Clouds,overcast clouds,272.35,267.92,272.35,272.35,1014,93,5313,100,3.95
Kodīnar,20.7903,70.7031,Clouds,broken clouds,305.88,307.38,305.88,305.88,1010,44,10000,63,3.91
Isetskoye,56.4858,65.3226,Clouds,scattered clouds,283.81,281.98,283.81,283.81,1013,40,10000,41,5.79
Pangnirtung,66.1451,-65.7125,Snow,light snow,273.15,273.15,273.15,273.15,1020,93,10000,75,1.03
Caluquembe,-13.7833,14.6833,Clouds,scattered clouds,286.85,286.57,286.85,286.85,1014,88,10000,39,0.33
Goodlettsville,36.3231,-86.7133,Clear,clear sky,287.97,287.39,287.59,288.15,1016,72,10000,1,3.39
Lanzhou,36.0564,103.7922,Clouds,scattered clouds,278.15,275.01,278.15,278.15,1027,60,10000,40,4.0
Leh,34.1667,77.5833,Clear,clear sky,278.85,278.85,278.85,278.85,1025,28,10000,0,1.22
Corn Island,12.1694,-83.0418,Clouds,overcast clouds,299.88,301.63,299.88,299.88,1013,71,10000,87,6.68
Palana,59.1167,159.9667,Clouds,overcast clouds,269.82,266.14,269.82,269.82,1016,85,10000,100,2.54
Bud,39.447,-86.1758,Clouds,overcast clouds,291.12,290.41,290.37,291.48,1010,55,10000,98,5.99
Puerto Asís,0.5133,-76.5007,Clouds,overcast clouds,295.47,296.34,295.47,295.47,1011,99,5544,100,0.77
Ahipara,-35.1667,173.1667,Clouds,broken clouds,289.47,289.19,289.47,289.47,1011,78,10000,75,3.06
Vestmannaeyjar,63.4427,-20.2734,Clouds,broken clouds,279.9,277.01,279.9,279.9,1032,87,10000,74,4.28
Wairoa,-39.0333,177.3667,Rain,light rain,286.48,285.93,286.48,286.48,1014,79,10000,99,3.58
Garden City,42.3256,-83.331,Clouds,scattered clouds,280.95,278.15,279.82,282.04,1015,49,10000,40,4.63
Mehamn,71.0357,27.8492,Snow,light snow,270.15,265.5,270.15,270.15,1015,68,10000,40,3.6
Ust-Tsilma,65.441,52.1498,Clouds,overcast clouds,276.44,274.63,276.44,276.44,1001,97,234,100,1.91
Salinópolis,-0.6136,-47.3561,Clouds,broken clouds,298.72,299.58,298.72,298.72,1009,86,10000,79,2.91
Amurzet,47.6967,131.0981,Clouds,overcast clouds,289.07,288.02,289.07,289.07,1006,50,10000,100,7.36
Mikhaylovka,50.06,43.2379,Clouds,overcast clouds,280.37,278.89,280.37,280.37,1000,92,10000,100,2.24
Vangaindrano,-23.35,47.6,Clouds,broken clouds,295.54,296.24,295.54,295.54,1018,92,10000,71,1.62
Uglegorsk,49.0833,142.0333,Clouds,few clouds,279.27,276.8,279.27,279.27,1015,65,10000,23,3.3
Porto Velho,-8.7619,-63.9039,Rain,light rain,297.15,298.06,297.15,297.15,1011,94,10000,20,1.03
Trofors,65.5333,13.4063,Clouds,few clouds,269.15,266.76,269.15,269.15,1020,93,10000,20,1.54
Cukai,4.25,103.4167,Clouds,scattered clouds,303.93,310.16,303.71,304.15,1011,70,10000,40,1.54
Anadyr,64.75,177.4833,Clear,clear sky,273.15,269.65,273.15,273.15,1013,86,10000,0,3.0
Salinas,36.6777,-121.6555,Clouds,broken clouds,284.3,283.19,283.15,285.15,1014,66,10000,75,6.17
Taylor,32.3001,-99.8337,Clear,clear sky,296.31,296.07,294.82,298.15,1007,53,10000,1,10.29
Carutapera,-1.195,-46.02,Clouds,broken clouds,297.3,298.17,297.3,297.3,1009,92,10000,80,2.01
Bariloche,-41.1456,-71.3082,Clear,clear sky,278.91,277.91,277.15,280.37,1017,65,10000,0,1.54
Shingū,33.7333,135.9833,Clouds,broken clouds,291.15,290.44,291.15,291.15,1022,55,10000,75,2.57
Lagoa,39.05,-27.9833,Clouds,overcast clouds,288.16,288.01,288.16,288.16,1018,88,10000,100,6.14
Tevaitoa,-16.7833,-151.5,Clear,clear sky,300.47,302.66,300.47,300.47,1015,71,10000,9,4.07
Bacungan,9.9106,118.7022,Clouds,scattered clouds,305.15,312.15,305.15,305.15,1012,66,10000,40,5.14
Qaqortoq,60.7167,-46.0333,Rain,light rain,275.15,271.59,275.15,275.15,1028,93,5000,75,3.6
Bambanglipuro,-7.95,110.2833,Clouds,broken clouds,303.34,307.45,303.34,303.34,1010,65,10000,59,6.42
Turbat,26.0023,63.044,Clear,clear sky,306.02,304.86,306.02,306.02,1009,29,10000,5,0.94
Tlacotepec (San Mateo),20.0667,-97.8667,Clouds,overcast clouds,292.98,292.87,292.98,292.98,1015,71,10000,100,1.57
Berbera,10.4396,45.0143,Clouds,overcast clouds,302.69,306.26,302.69,302.69,1011,66,10000,90,1.74
Townsville,-19.25,146.8,Clouds,broken clouds,301.15,301.97,301.15,301.15,1017,54,10000,75,8.75
Lobito,-12.3481,13.5456,Clouds,broken clouds,299.51,299.51,299.51,299.51,1008,72,10000,84,0.35
Alofi,-19.0595,-169.9187,Clouds,broken clouds,301.15,304.95,301.15,301.15,1010,78,10000,84,4.12
Bilecik Province,40.0,30.1667,Clear,clear sky,274.6,274.6,273.15,277.15,1017,93,10000,0,1.03
Kidal,18.4411,1.4078,Clear,clear sky,301.74,300.55,301.74,301.74,1007,27,10000,3,2.41
Moranbah,-22.0016,148.0466,Clouds,scattered clouds,299.38,299.38,299.38,299.38,1018,37,10000,47,6.7
Dabou,5.3256,-4.3769,Rain,light rain,301.15,307.62,301.15,301.15,1007,94,10000,20,3.09
Roald,62.5833,6.1333,Clear,clear sky,274.96,270.16,273.71,276.15,1020,65,10000,0,5.66
Kieta,-6.2167,155.6333,Rain,light rain,301.96,306.19,301.96,301.96,1009,74,10000,77,0.78
Comodoro Rivadavia,-45.8667,-67.5,Clear,clear sky,292.15,291.2,292.15,292.15,1007,42,10000,0,9.77
Tsimmerbude,54.675,20.1347,Clouds,broken clouds,276.51,272.44,275.93,277.15,1015,87,10000,75,5.0
Atbasar,51.8,68.3333,Clouds,overcast clouds,289.52,288.52,289.52,289.52,1015,50,10000,100,3.15
Pozo Colorado,-23.4923,-58.7972,Clear,clear sky,284.98,284.23,284.98,284.98,1018,77,10000,0,2.39
Wakkanai,45.4094,141.6739,Clouds,broken clouds,284.15,282.92,284.15,284.15,1017,62,10000,75,8.23
Malakal,9.5334,31.6605,Clouds,broken clouds,297.77,298.12,297.77,297.77,1010,70,10000,69,2.65
Umarkot,25.3616,69.7362,Clear,clear sky,310.89,308.3,310.89,310.89,1009,13,10000,0,3.78
Seoul,37.5683,126.9778,Rain,moderate rain,291.81,290.98,291.15,292.15,1017,48,10000,0,2.57
Thunder Bay,48.4001,-89.3168,Clouds,overcast clouds,275.05,271.12,274.82,275.15,1013,93,10000,90,4.12
Destin,30.3935,-86.4958,Clear,clear sky,293.8,294.09,293.15,295.15,1019,83,10000,1,0.99
Paamiut,61.994,-49.6678,Clear,clear sky,274.79,272.81,274.79,274.79,1030,84,10000,9,1.83
Dunhua,43.3725,128.2425,Rain,moderate rain,283.85,283.04,283.85,283.85,1010,79,10000,100,5.48
Houma,29.5958,-90.7195,Clouds,scattered clouds,293.6,294.16,293.15,294.26,1016,94,10000,40,1.54
Cidreira,-30.1811,-50.2056,Clear,clear sky,289.33,288.99,289.33,289.33,1017,76,10000,2,4.12
